[{"name":"James P. Johnson","sessions":[{"studio":"wor","year":1943},{"studio":"wor","year":1943},{"studio":"wor","year":1943},{"studio":"wor","year":1944},{"studio":"wor","year":1944},{"studio":"wor","year":1944}],"birthplace":{"city":"New Brunswick","state":"NJ","coordinates":{"latitude":40.4862157,"longitude":-74.4518188}},"reviewed":true},{"name":"Sidney DeParis","sessions":[{"studio":"wor","year":1943},{"studio":"wor","year":1944},{"studio":"wor","year":1944},{"studio":"wor","year":1944},{"studio":"wor","year":1944},{"studio":"wor","year":1951},{"studio":"wor","year":1951}],"birthplace":{"city":"Crawfordsville","state":"IN","coordinates":{"latitude":40.0411536,"longitude":-86.87445160000001}},"reviewed":true},{"name":"Vic Dickenson","sessions":[{"studio":"wor","year":1943},{"studio":"wor","year":1944},{"studio":"wor","year":1944},{"studio":"wor","year":1944},{"studio":"wor","year":1944},{"studio":"wor","year":1944},{"studio":"wor","year":1952}],"birthplace":{"city":"Xenia","state":"OH","coordinates":{"latitude":39.6847822,"longitude":-83.9296526}},"reviewed":true},{"name":"Edmond Hall","sessions":[{"studio":"wor","year":1943},{"studio":"wor","year":1944},{"studio":"wor","year":1944},{"studio":"wor","year":1944},{"studio":"wor","year":1944},{"studio":"wor","year":1944}],"birthplace":{"city":"Reserve","state":"LA","coordinates":{"latitude":30.0538131,"longitude":-90.5517534}},"reviewed":true},{"name":"Jimmy Shirley","sessions":[{"studio":"wor","year":1943},{"studio":"wor","year":1944},{"studio":"wor","year":1944},{"studio":"wor","year":1944},{"studio":"wor","year":1944},{"studio":"wor","year":1944},{"studio":"wor","year":1945},{"studio":"wor","year":1945},{"studio":"wor","year":1946}],"reviewed":true},{"name":"Israel Crosby","sessions":[{"studio":"wor","year":1943},{"studio":"wor","year":1945},{"studio":"wor","year":1945},{"studio":"rvg","year":1960}],"birthplace":{"city":"Chicago","state":"IL","coordinates":{"latitude":41.8781136,"longitude":-87.6297982}},"reviewed":true},{"name":"Sidney Catlett","sessions":[{"studio":"wor","year":1943},{"studio":"wor","year":1944},{"studio":"wor","year":1944},{"studio":"wor","year":1944},{"studio":"wor","year":1945},{"studio":"wor","year":1946},{"studio":"wor","year":1946}],"birthplace":{"city":"Evansville","state":"IN","coordinates":{"latitude":37.9715592,"longitude":-87.5710898}},"reviewed":true},{"name":"Teddy Wilson","sessions":[{"studio":"wor","year":1944}],"birthplace":{"city":"Austin","state":"TX","coordinates":{"latitude":30.267153,"longitude":-97.7430608}},"reviewed":true},{"name":"Carl Kress","sessions":[{"studio":"wor","year":1944},{"studio":"wor","year":1945}],"birthplace":{"city":"Newark","state":"NJ","coordinates":{"latitude":40.735657,"longitude":-74.1723667}},"reviewed":true},{"name":"Johnny Williams","sessions":[{"studio":"wor","year":1944},{"studio":"rvg","year":1953}],"birthplace":{"city":"Watertown","state":"ME","coordinates":{"latitude":43.284296,"longitude":-88.629898}},"reviewed":true},{"name":"Ben Webster","sessions":[{"studio":"wor","year":1944},{"studio":"wor","year":1945}],"birthplace":{"city":"Kansas City","state":"MO","coordinates":{"latitude":39.0997265,"longitude":-94.5785667}},"reviewed":true},{"name":"John Simmons","sessions":[{"studio":"wor","year":1944},{"studio":"wor","year":1944},{"studio":"wor","year":1946},{"studio":"rvg","year":1958}],"birthplace":{"city":"Haskell","state":"OK","coordinates":{"latitude":35.8203784,"longitude":-95.674149}},"reviewed":true},{"name":"Benny Morton","sessions":[{"studio":"wor","year":1944},{"studio":"wor","year":1945}],"birthplace":{"city":"New York","state":"NY","coordinates":{"latitude":40.7143528,"longitude":-74.00597309999999}},"reviewed":true},{"name":"Harry Carney","sessions":[{"studio":"wor","year":1944},{"studio":"wor","year":1945}],"birthplace":{"city":"Boston","state":"MA","coordinates":{"latitude":42.3584308,"longitude":-71.0597732}},"reviewed":true},{"name":"Don Frye","sessions":[{"studio":"wor","year":1944}],"birthplace":{"city":"Sierra Vista","state":"AZ","coordinates":{"latitude":31.5455001,"longitude":-110.2772856}},"reviewed":true},{"name":"Everett Barksdale","sessions":[{"studio":"wor","year":1944}],"birthplace":{"city":"Detroit","state":"MI","coordinates":{"latitude":42.331427,"longitude":-83.0457538}},"reviewed":true},{"name":"Alvin Raglin","sessions":[{"studio":"wor","year":1944}],"birthplace":{"city":"Omaha","state":"NE","coordinates":{"latitude":41.2523634,"longitude":-95.99798829999999}},"reviewed":true},{"name":"Max Kaminsky","sessions":[{"studio":"wor","year":1944},{"studio":"wor","year":1944},{"studio":"wor","year":1945},{"studio":"wor","year":1945},{"studio":"wor","year":1945},{"studio":"wor","year":1945}],"reviewed":true},{"name":"Art Hodes","sessions":[{"studio":"wor","year":1944},{"studio":"wor","year":1944},{"studio":"wor","year":1944},{"studio":"wor","year":1945},{"studio":"wor","year":1945},{"studio":"wor","year":1945},{"studio":"wor","year":1945},{"studio":"wor","year":1945},{"studio":"wor","year":1945},{"studio":"wor","year":1945},{"studio":"wor","year":1946},{"studio":"wor","year":1949},{"studio":"wor","year":1949}],"reviewed":true},{"name":"Sid Weiss","sessions":[{"studio":"wor","year":1944}],"birthplace":{"city":"Schenectady","state":"NY","coordinates":{"latitude":42.8142432,"longitude":-73.9395687}},"reviewed":true},{"name":"Danny Alvin","sessions":[{"studio":"wor","year":1944},{"studio":"wor","year":1944},{"studio":"wor","year":1945},{"studio":"wor","year":1945},{"studio":"wor","year":1946}],"birthplace":{"city":"New York City","state":"NY","coordinates":{"latitude":40.7143528,"longitude":-74.00597309999999}},"reviewed":true},{"name":"Ike Quebec","sessions":[{"studio":"wor","year":1944},{"studio":"wor","year":1944},{"studio":"wor","year":1945},{"studio":"wor","year":1945},{"studio":"wor","year":1946},{"studio":"rvg","year":1959},{"studio":"rvg","year":1959},{"studio":"rvg","year":1960},{"studio":"rvg","year":1960},{"studio":"rvg","year":1960},{"studio":"rvg","year":1961},{"studio":"rvg","year":1961},{"studio":"rvg","year":1961},{"studio":"rvg","year":1961},{"studio":"rvg","year":1961},{"studio":"rvg","year":1962},{"studio":"rvg","year":1962},{"studio":"rvg","year":1962},{"studio":"rvg","year":1962},{"studio":"rvg","year":1962},{"studio":"rvg","year":1962},{"studio":"rvg","year":1962},{"studio":"rvg","year":1962},{"studio":"rvg","year":1962},{"studio":"rvg","year":1962},{"studio":"rvg","year":1962},{"studio":"rvg","year":1962},{"studio":"rvg","year":1962}],"birthplace":{"city":"Newark","state":"NJ","coordinates":{"latitude":40.735657,"longitude":-74.1723667}},"reviewed":true},{"name":"Roger Ram Ramirez","sessions":[{"studio":"wor","year":1944},{"studio":"wor","year":1944},{"studio":"wor","year":1945},{"studio":"wor","year":1946}],"reviewed":true},{"name":"Tiny Grimes","sessions":[{"studio":"wor","year":1944},{"studio":"wor","year":1944},{"studio":"wor","year":1945},{"studio":"wor","year":1946},{"studio":"wor","year":1946}],"birthplace":{"city":"Newport News","state":"VA","coordinates":{"latitude":37.0870821,"longitude":-76.4730122}},"reviewed":true},{"name":"Milt Hinton","sessions":[{"studio":"wor","year":1944},{"studio":"wor","year":1945},{"studio":"wor","year":1946},{"studio":"rvg","year":1953},{"studio":"rvg","year":1960},{"studio":"rvg","year":1961},{"studio":"rvg","year":1961},{"studio":"rvg","year":1962},{"studio":"rvg","year":1962},{"studio":"rvg","year":1963},{"studio":"rvg","year":1963}],"birthplace":{"city":"Vicksburg","state":"MS","coordinates":{"latitude":32.3526456,"longitude":-90.877882}},"reviewed":true},{"name":"J.C. Heard","sessions":[{"studio":"wor","year":1944},{"studio":"wor","year":1944},{"studio":"wor","year":1945},{"studio":"wor","year":1945},{"studio":"wor","year":1946},{"studio":"rvg","year":1960}],"birthplace":{"city":"Dayton","state":"OH","coordinates":{"latitude":39.7589478,"longitude":-84.1916069}},"reviewed":true},{"name":"Meade “Lux” Lewis","sessions":[{"studio":"wor","year":1944}],"birthplace":{"city":"Chicago","state":"IL","coordinates":{"latitude":41.8781136,"longitude":-87.6297982}},"reviewed":true},{"name":"Jonah Jones","sessions":[{"studio":"wor","year":1944}],"birthplace":{"city":"Louisville","state":"KY","coordinates":{"latitude":38.2526647,"longitude":-85.7584557}},"reviewed":true},{"name":"Tyree Glenn","sessions":[{"studio":"wor","year":1944}],"birthplace":{"city":"Corsicana","state":"TX","coordinates":{"latitude":32.0954304,"longitude":-96.46887269999999}},"reviewed":true},{"name":"Oscar Pettiford","sessions":[{"studio":"wor","year":1944},{"studio":"wor","year":1945},{"studio":"wor","year":1951},{"studio":"wor","year":1952},{"studio":"rvg","year":1953},{"studio":"rvg","year":1955},{"studio":"rvg","year":1955},{"studio":"rvg","year":1956}],"birthplace":{"city":"Okmulgee","state":"OK","coordinates":{"latitude":35.6234367,"longitude":-95.9605502}},"reviewed":true},{"name":"Al Lucas","sessions":[{"studio":"wor","year":1944},{"studio":"wor","year":1945},{"studio":"rvg","year":1961},{"studio":"rvg","year":1962}],"reviewed":true},{"name":"Arthur Trappier","sessions":[{"studio":"wor","year":1944}],"birthplace":{"city":"Georgetown","state":"SC","coordinates":{"latitude":33.376834,"longitude":-79.2944964}},"reviewed":true},{"name":"Mezz Mezzrow","sessions":[{"studio":"wor","year":1944}],"birthplace":{"city":"Chicago","state":"IL","coordinates":{"latitude":41.8781136,"longitude":-87.6297982}},"reviewed":true},{"name":"Pops Foster","sessions":[{"studio":"wor","year":1944},{"studio":"wor","year":1944},{"studio":"wor","year":1945},{"studio":"wor","year":1945},{"studio":"wor","year":1945},{"studio":"wor","year":1946},{"studio":"wor","year":1950},{"studio":"wor","year":1951},{"studio":"wor","year":1951}],"birthplace":{"city":"Ascension Parish","state":"LA","coordinates":{"latitude":30.2017295,"longitude":-90.9438468}},"reviewed":true},{"name":"Sidney Bechet","sessions":[{"studio":"wor","year":1944},{"studio":"wor","year":1945},{"studio":"wor","year":1945},{"studio":"wor","year":1945},{"studio":"wor","year":1946},{"studio":"wor","year":1949},{"studio":"wor","year":1949},{"studio":"wor","year":1950},{"studio":"wor","year":1951}],"birthplace":{"city":"New Orleans","state":"LA","coordinates":{"latitude":29.95106579999999,"longitude":-90.0715323}},"reviewed":true},{"name":"Manzie Johnson","sessions":[{"studio":"wor","year":1944},{"studio":"wor","year":1945},{"studio":"wor","year":1951}],"birthplace":{"city":"New York","state":"NY","coordinates":{"latitude":40.7143528,"longitude":-74.00597309999999}},"reviewed":true},{"name":"Oscar Smith","sessions":[{"studio":"wor","year":1945}],"birthplace":{"city":"Tampa","state":"FL","coordinates":{"latitude":27.950575,"longitude":-82.4571776}},"reviewed":true},{"name":"George Lugg","sessions":[{"studio":"wor","year":1945},{"studio":"wor","year":1945},{"studio":"wor","year":1945}],"birthplace":{"city":"Chicago","state":"IL","coordinates":{"latitude":41.8781136,"longitude":-87.6297982}},"reviewed":true},{"name":"Fred Moore","sessions":[{"studio":"wor","year":1945},{"studio":"wor","year":1945},{"studio":"wor","year":1945},{"studio":"wor","year":1945},{"studio":"wor","year":1949}],"reviewed":true},{"name":"Barney Bigard","sessions":[{"studio":"wor","year":1945}],"birthplace":{"city":"New Orleans","state":"LA","coordinates":{"latitude":29.95106579999999,"longitude":-90.0715323}},"reviewed":true},{"name":"Sammy Benskin","sessions":[{"studio":"wor","year":1945},{"studio":"wor","year":1945},{"studio":"wor","year":1946},{"studio":"wor","year":1946}],"birthplace":{"city":"New York City","state":"NY","coordinates":{"latitude":40.7143528,"longitude":-74.00597309999999}},"reviewed":true},{"name":"Eddie Dougherty","sessions":[{"studio":"wor","year":1945}],"birthplace":{"city":"New York City","state":"NY","coordinates":{"latitude":40.7143528,"longitude":-74.00597309999999}},"reviewed":true},{"name":"Bunk Johnson","sessions":[{"studio":"wor","year":1945}],"birthplace":{"city":"New Orleans","state":"LA","coordinates":{"latitude":29.95106579999999,"longitude":-90.0715323}},"reviewed":true},{"name":"Sandy Williams","sessions":[{"studio":"wor","year":1945},{"studio":"wor","year":1945}],"birthplace":{"city":"Summerville","state":"SC","coordinates":{"latitude":33.0185039,"longitude":-80.17564809999999}},"reviewed":true},{"name":"Cliff Jackson","sessions":[{"studio":"wor","year":1945}],"birthplace":{"city":"Culpeper","state":"VA","coordinates":{"latitude":38.4731815,"longitude":-77.9966639}},"reviewed":true},{"name":"Dave Rivera","sessions":[{"studio":"wor","year":1945}],"reviewed":true},{"name":"Napoleon Allen","sessions":[{"studio":"wor","year":1945}],"reviewed":true},{"name":"Leonard “Bujie” Centobie","sessions":[{"studio":"wor","year":1945},{"studio":"wor","year":1945}],"reviewed":true},{"name":"Chick Robertson","sessions":[{"studio":"wor","year":1945},{"studio":"wor","year":1945}],"reviewed":true},{"name":"Jack Lesberg","sessions":[{"studio":"wor","year":1945},{"studio":"wor","year":1945}],"birthplace":{"city":"Boston","state":"MA","coordinates":{"latitude":42.3584308,"longitude":-71.0597732}},"reviewed":true},{"name":"Bobby Hackett","sessions":[{"studio":"wor","year":1945}],"birthplace":{"city":"Providence","state":"RI","coordinates":{"latitude":41.8239891,"longitude":-71.4128343}},"reviewed":true},{"name":"Vernon Brown","sessions":[{"studio":"wor","year":1945}],"birthplace":{"city":"Venice","state":"IL","coordinates":{"latitude":38.6722727,"longitude":-90.169832}},"reviewed":true},{"name":"Joe Dixon","sessions":[{"studio":"wor","year":1945}],"birthplace":{"city":"Lynn","state":"MA","coordinates":{"latitude":42.46676300000001,"longitude":-70.9494938}},"reviewed":true},{"name":"Dean Kincaide","sessions":[{"studio":"wor","year":1945}],"reviewed":true},{"name":"Dave Bowman","sessions":[{"studio":"wor","year":1945}],"birthplace":{"city":"Buffalo","state":"NY","coordinates":{"latitude":42.88644679999999,"longitude":-78.8783689}},"reviewed":true},{"name":"Bob Haggart","sessions":[{"studio":"wor","year":1945}],"birthplace":{"city":"New York City","state":"NY","coordinates":{"latitude":40.7143528,"longitude":-74.00597309999999}},"reviewed":true},{"name":"George Wettling","sessions":[{"studio":"wor","year":1945}],"birthplace":{"city":"Chicago","state":"IL","coordinates":{"latitude":41.8781136,"longitude":-87.6297982}},"reviewed":true},{"name":"Buck Clayton","sessions":[{"studio":"wor","year":1945}],"birthplace":{"city":"Parsons","state":"KS","coordinates":{"latitude":37.34033840000001,"longitude":-95.2610838}},"reviewed":true},{"name":"Keg Johnson","sessions":[{"studio":"wor","year":1945},{"studio":"wor","year":1946}],"birthplace":{"city":"Dallas","state":"TX","coordinates":{"latitude":32.7801399,"longitude":-96.80045109999999}},"reviewed":true},{"name":"Grachan Moncur","sessions":[{"studio":"wor","year":1945}],"birthplace":{"city":"Miami","state":"FL","coordinates":{"latitude":25.7889689,"longitude":-80.2264393}},"reviewed":true},{"name":"Billy Taylor","sessions":[{"studio":"wor","year":1945}],"birthplace":{"city":"Greenville","state":"NC","coordinates":{"latitude":35.612661,"longitude":-77.3663538}},"reviewed":true},{"name":"Specs Powell","sessions":[{"studio":"wor","year":1945}],"birthplace":{"city":"New York City","state":"NY","coordinates":{"latitude":40.7143528,"longitude":-74.00597309999999}},"reviewed":true},{"name":"Oliver “Rev.” Mesheux","sessions":[{"studio":"wor","year":1945},{"studio":"wor","year":1945}],"reviewed":true},{"name":"Vivian Smith","sessions":[{"studio":"wor","year":1945}],"reviewed":true},{"name":"Tommy Benford","sessions":[{"studio":"wor","year":1945}],"birthplace":{"city":"Charleston","state":"WV","coordinates":{"latitude":38.3498195,"longitude":-81.6326234}},"reviewed":true},{"name":"“Pigmeat” Alamo Markham","sessions":[{"studio":"","year":1945}],"birthplace":{"city":"Durham","state":"NC","coordinates":{"latitude":35.9940329,"longitude":-78.898619}},"reviewed":true},{"name":"Omer Simeon","sessions":[{"studio":"wor","year":1945},{"studio":"wor","year":1951}],"birthplace":{"city":"New Orleans","state":"LA","coordinates":{"latitude":29.95106579999999,"longitude":-90.0715323}},"reviewed":true},{"name":"Wild Bill Davison","sessions":[{"studio":"wor","year":1945},{"studio":"wor","year":1949},{"studio":"wor","year":1949},{"studio":"wor","year":1950}],"birthplace":{"city":"Defiance","state":"OH","coordinates":{"latitude":41.2844933,"longitude":-84.3557802}},"reviewed":true},{"name":"Ray Nance","sessions":[{"studio":"wor","year":1945}],"birthplace":{"city":"Chicago","state":"IL","coordinates":{"latitude":41.8781136,"longitude":-87.6297982}},"reviewed":true},{"name":"Henderson Chambers","sessions":[{"studio":"wor","year":1945}],"birthplace":{"city":"Alexandria","state":"LA","coordinates":{"latitude":31.3112936,"longitude":-92.4451371}},"reviewed":true},{"name":"Jimmy Hamilton","sessions":[{"studio":"wor","year":1945}],"birthplace":{"city":"Dillon","state":"SC","coordinates":{"latitude":34.4165505,"longitude":-79.3711579}},"reviewed":true},{"name":"Otto Hardwick","sessions":[{"studio":"wor","year":1945}],"birthplace":{"city":"Washington","state":"DC","coordinates":{"latitude":38.8951118,"longitude":-77.0363658}},"reviewed":true},{"name":"Jimmy Jones","sessions":[{"studio":"wor","year":1945}],"birthplace":{"city":"Memphis","state":"TN","coordinates":{"latitude":35.1495343,"longitude":-90.0489801}},"reviewed":true},{"name":"Albert Nicholas","sessions":[{"studio":"wor","year":1945},{"studio":"wor","year":1946}],"birthplace":{"city":"New Orleans","state":"LA","coordinates":{"latitude":29.95106579999999,"longitude":-90.0715323}},"reviewed":true},{"name":"Wellman Braud","sessions":[{"studio":"wor","year":1945}],"birthplace":{"city":"St. James Parish","state":"LA","coordinates":{"latitude":30.0453858,"longitude":-90.6935791}},"reviewed":true},{"name":"Baby Dodds","sessions":[{"studio":"wor","year":1945}],"birthplace":{"city":"New Orleans","state":"LA","coordinates":{"latitude":29.95106579999999,"longitude":-90.0715323}},"reviewed":true},{"name":"John Hardee","sessions":[{"studio":"wor","year":1946},{"studio":"wor","year":1946},{"studio":"wor","year":1946}],"birthplace":{"city":"Corsicana","state":"TX","coordinates":{"latitude":32.0954304,"longitude":-96.46887269999999}},"reviewed":true},{"name":"Bill Bivens","sessions":[{"studio":"wor","year":1946}],"reviewed":true},{"name":"Gene Ramey","sessions":[{"studio":"wor","year":1946},{"studio":"wor","year":1947},{"studio":"wor","year":1947},{"studio":"wor","year":1952},{"studio":"wor","year":1952},{"studio":"rvg","year":1956}],"birthplace":{"city":"Austin","state":"TX","coordinates":{"latitude":30.267153,"longitude":-97.7430608}},"reviewed":true},{"name":"Trummy Young","sessions":[{"studio":"wor","year":1946}],"birthplace":{"city":"Savannah","state":"GA","coordinates":{"latitude":32.0835407,"longitude":-81.09983419999999}},"reviewed":true},{"name":"Marlowe Morris","sessions":[{"studio":"wor","year":1946}],"birthplace":{"city":"New York City","state":"NY","coordinates":{"latitude":40.7143528,"longitude":-74.00597309999999}},"reviewed":true},{"name":"Jimmy Butts","sessions":[{"studio":"wor","year":1946}],"reviewed":true},{"name":"Eddie Nicholson","sessions":[{"studio":"wor","year":1946}],"reviewed":true},{"name":"Shad Collins","sessions":[{"studio":"wor","year":1946}],"birthplace":{"city":"Elizabeth","state":"NJ","coordinates":{"latitude":40.6639916,"longitude":-74.2107006}},"reviewed":true},{"name":"John Collins","sessions":[{"studio":"wor","year":1946},{"studio":"wor","year":1952},{"studio":"rvg","year":1953}],"birthplace":{"city":"Montgomery","state":"AL","coordinates":{"latitude":32.3668052,"longitude":-86.2999689}},"reviewed":true},{"name":"Rudy Williams","sessions":[{"studio":"wor","year":1947}],"birthplace":{"city":"Newark","state":"NJ","coordinates":{"latitude":40.735657,"longitude":-74.1723667}},"reviewed":true},{"name":"Tadd Dameron","sessions":[{"studio":"wor","year":1947},{"studio":"wor","year":1947},{"studio":"rvg","year":1961}],"birthplace":{"city":"Cleveland","state":"OH","coordinates":{"latitude":41.4994954,"longitude":-81.6954088}},"reviewed":true},{"name":"Pee Wee Tinney","sessions":[{"studio":"wor","year":1947},{"studio":"wor","year":1947}],"reviewed":true},{"name":"Art Phipps","sessions":[{"studio":"wor","year":1947},{"studio":"wor","year":1947}],"reviewed":true},{"name":"Charles Simon","sessions":[{"studio":"wor","year":1947}],"reviewed":true},{"name":"Babs Gonzales","sessions":[{"studio":"wor","year":1947},{"studio":"wor","year":1947},{"studio":"rvg","year":1956},{"studio":"rvg","year":1958},{"studio":"rvg","year":1958}],"birthplace":{"city":"Newark","state":"NJ","coordinates":{"latitude":40.735657,"longitude":-74.1723667}},"reviewed":true},{"name":"Idrees Sulieman","sessions":[{"studio":"wor","year":1947}],"birthplace":{"city":"St. Petersburg","state":"FL","coordinates":{"latitude":27.7730556,"longitude":-82.64}},"reviewed":true},{"name":"Danny Quebec West","sessions":[{"studio":"wor","year":1947}],"reviewed":true},{"name":"Billy Smith","sessions":[{"studio":"wor","year":1947}],"birthplace":{"city":"Charleston","state":"SC","coordinates":{"latitude":32.7765656,"longitude":-79.93092159999999}},"reviewed":true},{"name":"Thelonious Monk","sessions":[{"studio":"wor","year":1947},{"studio":"wor","year":1947},{"studio":"wor","year":1951},{"studio":"wor","year":1952},{"studio":"rvg","year":1957}],"birthplace":{"city":"Rocky Mount","state":"NC","coordinates":{"latitude":35.9382103,"longitude":-77.7905339}},"reviewed":true},{"name":"Art Blakey","sessions":[{"studio":"wor","year":1947},{"studio":"wor","year":1947},{"studio":"wor","year":1947},{"studio":"wor","year":1947},{"studio":"wor","year":1951},{"studio":"wor","year":1952},{"studio":"wor","year":1952},{"studio":"wor","year":1952},{"studio":"rvg","year":1953},{"studio":"wor","year":1953},{"studio":"wor","year":1953},{"studio":"rvg","year":1954},{"studio":"rvg","year":1954},{"studio":"rvg","year":1954},{"studio":"rvg","year":1954},{"studio":"rvg","year":1955},{"studio":"rvg","year":1955},{"studio":"rvg","year":1955},{"studio":"rvg","year":1955},{"studio":"rvg","year":1955},{"studio":"rvg","year":1955},{"studio":"rvg","year":1955},{"studio":"rvg","year":1957},{"studio":"rvg","year":1957},{"studio":"rvg","year":1957},{"studio":"rvg","year":1957},{"studio":"rvg","year":1957},{"studio":"rvg","year":1958},{"studio":"rvg","year":1958},{"studio":"rvg","year":1958},{"studio":"rvg","year":1958},{"studio":"rvg","year":1959},{"studio":"rvg","year":1959},{"studio":"rvg","year":1959},{"studio":"rvg","year":1959},{"studio":"rvg","year":1960},{"studio":"rvg","year":1960},{"studio":"rvg","year":1960},{"studio":"rvg","year":1960},{"studio":"rvg","year":1960},{"studio":"rvg","year":1960},{"studio":"rvg","year":1960},{"studio":"rvg","year":1961},{"studio":"rvg","year":1961},{"studio":"rvg","year":1961},{"studio":"rvg","year":1961},{"studio":"rvg","year":1961},{"studio":"rvg","year":1961},{"studio":"rvg","year":1961},{"studio":"rvg","year":1962},{"studio":"rvg","year":1962},{"studio":"rvg","year":1962},{"studio":"rvg","year":1964},{"studio":"rvg","year":1964},{"studio":"rvg","year":1964},{"studio":"rvg","year":1964},{"studio":"rvg","year":1964},{"studio":"rvg","year":1964}],"birthplace":{"city":"Pittsburgh","state":"PA","coordinates":{"latitude":40.44062479999999,"longitude":-79.9958864}},"reviewed":true},{"name":"George Taitt","sessions":[{"studio":"wor","year":1947}],"reviewed":true},{"name":"Sahib Shihab","sessions":[{"studio":"wor","year":1947},{"studio":"wor","year":1947},{"studio":"wor","year":1951}],"birthplace":{"city":"Savannah","state":"GA","coordinates":{"latitude":32.0835407,"longitude":-81.09983419999999}},"reviewed":true},{"name":"Bob Paige","sessions":[{"studio":"wor","year":1947}],"reviewed":true},{"name":"Kenny Dorham","sessions":[{"studio":"wor","year":1947},{"studio":"wor","year":1952},{"studio":"rvg","year":1954},{"studio":"rvg","year":1954},{"studio":"rvg","year":1955},{"studio":"rvg","year":1955},{"studio":"rvg","year":1955},{"studio":"rvg","year":1957},{"studio":"rvg","year":1961},{"studio":"rvg","year":1961},{"studio":"rvg","year":1962},{"studio":"rvg","year":1963},{"studio":"rvg","year":1963},{"studio":"rvg","year":1963},{"studio":"rvg","year":1963},{"studio":"rvg","year":1963},{"studio":"rvg","year":1964},{"studio":"rvg","year":1964},{"studio":"rvg","year":1964},{"studio":"rvg","year":1964}],"birthplace":{"city":"Fairfield","state":"TX","coordinates":{"latitude":31.7246128,"longitude":-96.1652481}},"reviewed":true},{"name":"Howard Bowe","sessions":[{"studio":"wor","year":1947}],"reviewed":true},{"name":"Orlando Wright (Musa Kaleem)","sessions":[{"studio":"wor","year":1947},{"studio":"rvg","year":1960}],"birthplace":{"city":"Wheeling","state":"WV","coordinates":{"latitude":40.0639616,"longitude":-80.7209149}},"reviewed":true},{"name":"Ernest Thompson","sessions":[{"studio":"wor","year":1947}],"reviewed":true},{"name":"Walter Bishop Jr.","sessions":[{"studio":"wor","year":1947},{"studio":"rvg","year":1959},{"studio":"rvg","year":1960},{"studio":"rvg","year":1960}],"birthplace":{"city":"New York City","state":"NY","coordinates":{"latitude":40.7143528,"longitude":-74.00597309999999}},"reviewed":true},{"name":"LaVerne Barker","sessions":[{"studio":"wor","year":1947}],"reviewed":true},{"name":"Lester Young","sessions":[{"studio":"wor","year":1947}],"birthplace":{"city":"Woodville","state":"MS","coordinates":{"latitude":31.104619,"longitude":-91.29955509999999}},"reviewed":true},{"name":"Gene DiNovi","sessions":[{"studio":"wor","year":1947}],"birthplace":{"city":"New York","state":"NY","coordinates":{"latitude":40.7143528,"longitude":-74.00597309999999}},"reviewed":true},{"name":"Chuck Wayne","sessions":[{"studio":"wor","year":1947}],"birthplace":{"city":"New York City","state":"NY","coordinates":{"latitude":40.7143528,"longitude":-74.00597309999999}},"reviewed":true},{"name":"Curly Russell","sessions":[{"studio":"wor","year":1947},{"studio":"wor","year":1950},{"studio":"wor","year":1951},{"studio":"wor","year":1952},{"studio":"rvg","year":1953},{"studio":"rvg","year":1956},{"studio":"rvg","year":1957}],"birthplace":{"city":"New York City","state":"NY","coordinates":{"latitude":40.7143528,"longitude":-74.00597309999999}},"reviewed":true},{"name":"Tiny Kahn","sessions":[{"studio":"wor","year":1947}],"birthplace":{"city":"New York City","state":"NY","coordinates":{"latitude":40.7143528,"longitude":-74.00597309999999}},"reviewed":true},{"name":"Walter Page","sessions":[{"studio":"wor","year":1949},{"studio":"wor","year":1949}],"birthplace":{"city":"Gallatin","state":"MO","coordinates":{"latitude":39.9144513,"longitude":-93.9621669}},"reviewed":true},{"name":"Ray Diehl","sessions":[{"studio":"wor","year":1949}],"reviewed":true},{"name":"Slick Jones","sessions":[{"studio":"wor","year":1949},{"studio":"wor","year":1950}],"birthplace":{"city":"Roanoke","state":"VA","coordinates":{"latitude":37.2709704,"longitude":-79.9414266}},"reviewed":true},{"name":"Fats Navarro","sessions":[{"studio":"wor","year":1949}],"birthplace":{"city":"Key West","state":"FL","coordinates":{"latitude":24.5557025,"longitude":-81.7825914}},"reviewed":true},{"name":"Sonny Rollins","sessions":[{"studio":"wor","year":1949},{"studio":"rvg","year":1956},{"studio":"rvg","year":1957},{"studio":"rvg","year":1957}],"birthplace":{"city":"New York City","state":"NY","coordinates":{"latitude":40.7143528,"longitude":-74.00597309999999}},"reviewed":true},{"name":"Bud Powell","sessions":[{"studio":"wor","year":1949},{"studio":"wor","year":1951},{"studio":"wor","year":1953},{"studio":"rvg","year":1957},{"studio":"rvg","year":1958},{"studio":"rvg","year":1958}],"birthplace":{"city":"Harlem","state":"NY","coordinates":{"latitude":40.8113824,"longitude":-73.9447994}},"reviewed":true},{"name":"Tommy Potter","sessions":[{"studio":"wor","year":1949}],"birthplace":{"city":"Philadelphia","state":"PA","coordinates":{"latitude":39.952335,"longitude":-75.16378900000001}},"reviewed":true},{"name":"Roy Haynes","sessions":[{"studio":"wor","year":1949},{"studio":"rvg","year":1958},{"studio":"rvg","year":1963},{"studio":"rvg","year":1963},{"studio":"rvg","year":1963},{"studio":"rvg","year":1964}],"birthplace":{"city":"Boston","state":"MA","coordinates":{"latitude":42.3584308,"longitude":-71.0597732}},"reviewed":true},{"name":"Howard McGhee","sessions":[{"studio":"wor","year":1950},{"studio":"wor","year":1953}],"birthplace":{"city":"Tulsa","state":"OK","coordinates":{"latitude":36.1539816,"longitude":-95.99277500000001}},"reviewed":true},{"name":"J.J. Johnson","sessions":[{"studio":"wor","year":1950},{"studio":"wor","year":1952},{"studio":"wor","year":1953},{"studio":"wor","year":1953},{"studio":"rvg","year":1954},{"studio":"rvg","year":1955},{"studio":"rvg","year":1955},{"studio":"rvg","year":1957},{"studio":"rvg","year":1964},{"studio":"rvg","year":1964},{"studio":"rvg","year":1965},{"studio":"rvg","year":1965}],"birthplace":{"city":"Indianapolis","state":"IN","coordinates":{"latitude":39.768403,"longitude":-86.158068}},"reviewed":true},{"name":"Brew Moore","sessions":[{"studio":"wor","year":1950}],"birthplace":{"city":"Indianola","state":"MS","coordinates":{"latitude":33.4509513,"longitude":-90.6550917}},"reviewed":true},{"name":"Kenny Drew","sessions":[{"studio":"wor","year":1950},{"studio":"rvg","year":1953},{"studio":"rvg","year":1957},{"studio":"rvg","year":1960},{"studio":"rvg","year":1960},{"studio":"rvg","year":1960},{"studio":"rvg","year":1961},{"studio":"rvg","year":1961},{"studio":"rvg","year":1961},{"studio":"rvg","year":1961},{"studio":"rvg","year":1961},{"studio":"rvg","year":1961}],"birthplace":{"city":"New York City","state":"NY","coordinates":{"latitude":40.7143528,"longitude":-74.00597309999999}},"reviewed":true},{"name":"Max Roach","sessions":[{"studio":"wor","year":1950},{"studio":"wor","year":1951},{"studio":"rvg","year":1952},{"studio":"wor","year":1952},{"studio":"rvg","year":1955},{"studio":"rvg","year":1955},{"studio":"rvg","year":1956},{"studio":"rvg","year":1956},{"studio":"rvg","year":1956},{"studio":"rvg","year":1956}],"birthplace":{"city":"Newland","state":"NC","coordinates":{"latitude":36.0873484,"longitude":-81.9273362}},"reviewed":true},{"name":"Jimmy Archey","sessions":[{"studio":"wor","year":1950},{"studio":"wor","year":1951},{"studio":"wor","year":1951}],"birthplace":{"city":"Norfolk","state":"VA","coordinates":{"latitude":36.8507689,"longitude":-76.28587259999999}},"reviewed":true},{"name":"Joe Sullivan","sessions":[{"studio":"wor","year":1950}],"birthplace":{"city":"Chicago","state":"Illinois","coordinates":{"latitude":41.8781136,"longitude":-87.6297982}},"reviewed":true},{"name":"Bob Green","sessions":[{"studio":"wor","year":1951}],"reviewed":true},{"name":"Joe Smith","sessions":[{"studio":"wor","year":1951}],"birthplace":{"city":"Ripley","state":"OH","coordinates":{"latitude":38.7456277,"longitude":-83.84492449999999}},"reviewed":true},{"name":"Milt Jackson","sessions":[{"studio":"wor","year":1951},{"studio":"wor","year":1952},{"studio":"rvg","year":1957}],"birthplace":{"city":"Detroit","state":"MI","coordinates":{"latitude":42.331427,"longitude":-83.0457538}},"reviewed":true},{"name":"Al McKibbon","sessions":[{"studio":"wor","year":1951},{"studio":"rvg","year":1955},{"studio":"rvg","year":1955},{"studio":"rvg","year":1955},{"studio":"rvg","year":1955}],"birthplace":{"city":"Chicago","state":"IL","coordinates":{"latitude":41.8781136,"longitude":-87.6297982}},"reviewed":true},{"name":"Wynton Kelly","sessions":[{"studio":"wor","year":1951},{"studio":"wor","year":1951},{"studio":"rvg","year":1954},{"studio":"rvg","year":1956},{"studio":"rvg","year":1956},{"studio":"rvg","year":1957},{"studio":"rvg","year":1957},{"studio":"rvg","year":1957},{"studio":"rvg","year":1958},{"studio":"rvg","year":1958},{"studio":"rvg","year":1959},{"studio":"rvg","year":1959},{"studio":"rvg","year":1959},{"studio":"rvg","year":1960},{"studio":"rvg","year":1960},{"studio":"rvg","year":1960},{"studio":"rvg","year":1960},{"studio":"rvg","year":1960},{"studio":"rvg","year":1961},{"studio":"rvg","year":1961}],"birthplace":{"city":"Brooklyn","state":"NY","coordinates":{"latitude":40.65,"longitude":-73.95}},"reviewed":true},{"name":"Franklin Skeete","sessions":[{"studio":"wor","year":1951},{"studio":"wor","year":1951}],"reviewed":true},{"name":"Lee Abrams","sessions":[{"studio":"wor","year":1951},{"studio":"wor","year":1951}],"reviewed":true},{"name":"Don Kirkpatrick","sessions":[{"studio":"wor","year":1951}],"birthplace":{"city":"Charlotte","state":"NC","coordinates":{"latitude":35.2270869,"longitude":-80.8431267}},"reviewed":true},{"name":"Eddie Bert","sessions":[{"studio":"rvg","year":1952},{"studio":"rvg","year":1953},{"studio":"rvg","year":1956}],"birthplace":{"city":"Yonkers","state":"NY","coordinates":{"latitude":40.9312099,"longitude":-73.89874689999999}},"reviewed":true},{"name":"Gil Melle","sessions":[{"studio":"rvg","year":1952},{"studio":"rvg","year":1953},{"studio":"rvg","year":1953},{"studio":"rvg","year":1954},{"studio":"rvg","year":1955},{"studio":"rvg","year":1956}],"birthplace":{"city":"Jersey City","state":"NJ","coordinates":{"latitude":40.72815749999999,"longitude":-74.0776417}},"reviewed":true},{"name":"Joe Manning","sessions":[{"studio":"rvg","year":1952}],"reviewed":true},{"name":"George Wallington","sessions":[{"studio":"rvg","year":1952},{"studio":"rvg","year":1953}],"reviewed":true},{"name":"Red Mitchell","sessions":[{"studio":"rvg","year":1952}],"birthplace":{"city":"New York City","state":"NY","coordinates":{"latitude":40.7143528,"longitude":-74.00597309999999}},"reviewed":true},{"name":"Monica Dell","sessions":[{"studio":"rvg","year":1952}],"reviewed":true},{"name":"Lou Donaldson","sessions":[{"studio":"wor","year":1952},{"studio":"wor","year":1952},{"studio":"wor","year":1952},{"studio":"wor","year":1952},{"studio":"wor","year":1953},{"studio":"rvg","year":1954},{"studio":"rvg","year":1957},{"studio":"rvg","year":1957},{"studio":"rvg","year":1957},{"studio":"rvg","year":1958},{"studio":"rvg","year":1958},{"studio":"rvg","year":1959},{"studio":"rvg","year":1959},{"studio":"rvg","year":1959},{"studio":"rvg","year":1960},{"studio":"rvg","year":1960},{"studio":"rvg","year":1960},{"studio":"rvg","year":1961},{"studio":"rvg","year":1961},{"studio":"rvg","year":1961},{"studio":"rvg","year":1962},{"studio":"rvg","year":1963},{"studio":"rvg","year":1963},{"studio":"rvg","year":1963},{"studio":"rvg","year":1967},{"studio":"rvg","year":1967},{"studio":"rvg","year":1967}],"birthplace":{"city":"Badin","state":"NC","coordinates":{"latitude":35.4047222,"longitude":-80.11583329999999}},"reviewed":true},{"name":"John Lewis","sessions":[{"studio":"wor","year":1952},{"studio":"wor","year":1953}],"birthplace":{"city":"La Grange","state":"IL","coordinates":{"latitude":41.8050314,"longitude":-87.8692254}},"reviewed":true},{"name":"Percy Heath","sessions":[{"studio":"wor","year":1952},{"studio":"wor","year":1952},{"studio":"wor","year":1953},{"studio":"wor","year":1953},{"studio":"rvg","year":1953},{"studio":"wor","year":1953},{"studio":"wor","year":1953},{"studio":"rvg","year":1954},{"studio":"rvg","year":1954},{"studio":"rvg","year":1954},{"studio":"rvg","year":1954},{"studio":"rvg","year":1955},{"studio":"rvg","year":1956}],"birthplace":{"city":"Wilmington","state":"NC","coordinates":{"latitude":34.2257255,"longitude":-77.9447102}},"reviewed":true},{"name":"Kenny Clarke","sessions":[{"studio":"wor","year":1952},{"studio":"wor","year":1952},{"studio":"rvg","year":1953},{"studio":"wor","year":1953},{"studio":"rvg","year":1954},{"studio":"rvg","year":1954},{"studio":"rvg","year":1954},{"studio":"rvg","year":1955},{"studio":"rvg","year":1956},{"studio":"rvg","year":1956}],"birthplace":{"city":"Pittsburgh","state":"PA","coordinates":{"latitude":40.44062479999999,"longitude":-79.9958864}},"reviewed":true},{"name":"Miles Davis","sessions":[{"studio":"wor","year":1952},{"studio":"wor","year":1953},{"studio":"rvg","year":1954},{"studio":"rvg","year":1958}],"birthplace":{"city":"Alton","state":"IL","coordinates":{"latitude":38.8906038,"longitude":-90.1842764}},"reviewed":true},{"name":"Jackie McLean","sessions":[{"studio":"wor","year":1952},{"studio":"rvg","year":1958},{"studio":"rvg","year":1958},{"studio":"rvg","year":1959},{"studio":"rvg","year":1959},{"studio":"rvg","year":1959},{"studio":"rvg","year":1959},{"studio":"rvg","year":1959},{"studio":"rvg","year":1960},{"studio":"rvg","year":1960},{"studio":"rvg","year":1960},{"studio":"rvg","year":1960},{"studio":"rvg","year":1960},{"studio":"rvg","year":1960},{"studio":"rvg","year":1960},{"studio":"rvg","year":1961},{"studio":"rvg","year":1961},{"studio":"rvg","year":1961},{"studio":"rvg","year":1961},{"studio":"rvg","year":1962},{"studio":"rvg","year":1962},{"studio":"rvg","year":1962},{"studio":"rvg","year":1963},{"studio":"rvg","year":1963},{"studio":"rvg","year":1963},{"studio":"rvg","year":1963},{"studio":"rvg","year":1964},{"studio":"rvg","year":1964},{"studio":"rvg","year":1964},{"studio":"rvg","year":1964},{"studio":"rvg","year":1965},{"studio":"rvg","year":1965},{"studio":"rvg","year":1965},{"studio":"rvg","year":1965},{"studio":"rvg","year":1965},{"studio":"rvg","year":1965},{"studio":"rvg","year":1965},{"studio":"rvg","year":1966},{"studio":"rvg","year":1966},{"studio":"rvg","year":1967},{"studio":"rvg","year":1967},{"studio":"rvg","year":1967},{"studio":"rvg","year":1967},{"studio":"rvg","year":1967},{"studio":"rvg","year":1967},{"studio":"rvg","year":1967}],"birthplace":{"city":"New York City","state":"NY","coordinates":{"latitude":40.7143528,"longitude":-74.00597309999999}},"reviewed":true},{"name":"Gil Coggins","sessions":[{"studio":"wor","year":1952},{"studio":"wor","year":1953}],"birthplace":{"city":"New York City","state":"NY","coordinates":{"latitude":40.7143528,"longitude":-74.00597309999999}},"reviewed":true},{"name":"Lucky Thompson","sessions":[{"studio":"wor","year":1952}],"birthplace":{"city":"Columbia","state":"SC","coordinates":{"latitude":34.0007104,"longitude":-81.0348144}},"reviewed":true},{"name":"Nelson Boyd","sessions":[{"studio":"wor","year":1952}],"birthplace":{"city":"Camden","state":"NJ","coordinates":{"latitude":39.9259463,"longitude":-75.1196199}},"reviewed":true},{"name":"Horace Silver","sessions":[{"studio":"wor","year":1952},{"studio":"wor","year":1952},{"studio":"wor","year":1952},{"studio":"wor","year":1952},{"studio":"wor","year":1953},{"studio":"wor","year":1953},{"studio":"rvg","year":1954},{"studio":"rvg","year":1954},{"studio":"rvg","year":1955},{"studio":"rvg","year":1955},{"studio":"rvg","year":1955},{"studio":"rvg","year":1955},{"studio":"rvg","year":1955},{"studio":"rvg","year":1956},{"studio":"rvg","year":1956},{"studio":"rvg","year":1956},{"studio":"rvg","year":1956},{"studio":"rvg","year":1956},{"studio":"rvg","year":1957},{"studio":"rvg","year":1957},{"studio":"rvg","year":1957},{"studio":"rvg","year":1957},{"studio":"rvg","year":1957},{"studio":"rvg","year":1957},{"studio":"rvg","year":1958},{"studio":"rvg","year":1958},{"studio":"rvg","year":1959},{"studio":"rvg","year":1959},{"studio":"rvg","year":1959},{"studio":"rvg","year":1959},{"studio":"rvg","year":1960},{"studio":"rvg","year":1960},{"studio":"rvg","year":1962},{"studio":"rvg","year":1962},{"studio":"rvg","year":1963},{"studio":"rvg","year":1963},{"studio":"rvg","year":1963},{"studio":"rvg","year":1963},{"studio":"rvg","year":1963},{"studio":"rvg","year":1964},{"studio":"rvg","year":1964},{"studio":"rvg","year":1965},{"studio":"rvg","year":1965},{"studio":"rvg","year":1966},{"studio":"rvg","year":1966}],"birthplace":{"city":"Norwalk","state":"CT","coordinates":{"latitude":41.1175966,"longitude":-73.40789680000002}},"reviewed":true},{"name":"Art Taylor","sessions":[{"studio":"wor","year":1952},{"studio":"wor","year":1953},{"studio":"rvg","year":1957},{"studio":"rvg","year":1957},{"studio":"rvg","year":1957},{"studio":"rvg","year":1957},{"studio":"rvg","year":1957},{"studio":"rvg","year":1957},{"studio":"rvg","year":1957},{"studio":"rvg","year":1957},{"studio":"rvg","year":1957},{"studio":"rvg","year":1957},{"studio":"rvg","year":1957},{"studio":"rvg","year":1957},{"studio":"rvg","year":1958},{"studio":"rvg","year":1958},{"studio":"rvg","year":1958},{"studio":"rvg","year":1958},{"studio":"rvg","year":1958},{"studio":"rvg","year":1958},{"studio":"rvg","year":1959},{"studio":"rvg","year":1959},{"studio":"rvg","year":1959},{"studio":"rvg","year":1959},{"studio":"rvg","year":1959},{"studio":"rvg","year":1960},{"studio":"rvg","year":1960},{"studio":"rvg","year":1960},{"studio":"rvg","year":1960},{"studio":"rvg","year":1960},{"studio":"rvg","year":1960},{"studio":"rvg","year":1960},{"studio":"rvg","year":1960},{"studio":"rvg","year":1961},{"studio":"rvg","year":1962}],"birthplace":{"city":"New York City","state":"NY","coordinates":{"latitude":40.7143528,"longitude":-74.00597309999999}},"reviewed":true},{"name":"Bill Doggett","sessions":[{"studio":"wor","year":1952}],"birthplace":{"city":"Philadelphia","state":"PA","coordinates":{"latitude":39.952335,"longitude":-75.16378900000001}},"reviewed":true},{"name":"Jo Jones","sessions":[{"studio":"wor","year":1952}],"birthplace":{"city":"Chicago","state":"IL","coordinates":{"latitude":41.8781136,"longitude":-87.6297982}},"reviewed":true},{"name":"Blue Mitchell","sessions":[{"studio":"wor","year":1952},{"studio":"rvg","year":1959},{"studio":"rvg","year":1959},{"studio":"rvg","year":1959},{"studio":"rvg","year":1959},{"studio":"rvg","year":1959},{"studio":"rvg","year":1960},{"studio":"rvg","year":1960},{"studio":"rvg","year":1960},{"studio":"rvg","year":1960},{"studio":"rvg","year":1960},{"studio":"rvg","year":1960},{"studio":"rvg","year":1962},{"studio":"rvg","year":1962},{"studio":"rvg","year":1963},{"studio":"rvg","year":1963},{"studio":"rvg","year":1963},{"studio":"rvg","year":1963},{"studio":"rvg","year":1963},{"studio":"rvg","year":1963},{"studio":"rvg","year":1963},{"studio":"rvg","year":1963},{"studio":"rvg","year":1963},{"studio":"rvg","year":1963},{"studio":"rvg","year":1964},{"studio":"rvg","year":1964},{"studio":"rvg","year":1964},{"studio":"rvg","year":1965},{"studio":"rvg","year":1965},{"studio":"rvg","year":1965},{"studio":"rvg","year":1966},{"studio":"rvg","year":1966},{"studio":"rvg","year":1966},{"studio":"rvg","year":1966},{"studio":"rvg","year":1967},{"studio":"rvg","year":1967},{"studio":"rvg","year":1967},{"studio":"rvg","year":1967},{"studio":"rvg","year":1967}],"birthplace":{"city":"Miami","state":"FL","coordinates":{"latitude":25.7889689,"longitude":-80.2264393}},"reviewed":true},{"name":"Tal Farlow","sessions":[{"studio":"rvg","year":1953},{"studio":"wor","year":1953},{"studio":"rvg","year":1953},{"studio":"rvg","year":1954}],"birthplace":{"city":"Greensboro","state":"NC","coordinates":{"latitude":36.0726354,"longitude":-79.7919754}},"reviewed":true},{"name":"Clyde Lombardi","sessions":[{"studio":"rvg","year":1953},{"studio":"rvg","year":1953},{"studio":"rvg","year":1954}],"reviewed":true},{"name":"Joe Morello","sessions":[{"studio":"rvg","year":1953},{"studio":"rvg","year":1953},{"studio":"rvg","year":1954}],"birthplace":{"city":"Springfield","state":"MA","coordinates":{"latitude":42.1014831,"longitude":-72.589811}},"reviewed":true},{"name":"Jimmy Heath","sessions":[{"studio":"wor","year":1953},{"studio":"wor","year":1953},{"studio":"wor","year":1953},{"studio":"rvg","year":1961},{"studio":"rvg","year":1963},{"studio":"rvg","year":1963},{"studio":"rvg","year":1963},{"studio":"rvg","year":1964},{"studio":"rvg","year":1967}],"birthplace":{"city":"Philadelphia","state":"PA","coordinates":{"latitude":39.952335,"longitude":-75.16378900000001}},"reviewed":true},{"name":"Gigi Gryce","sessions":[{"studio":"wor","year":1953},{"studio":"rvg","year":1957},{"studio":"rvg","year":1957}],"birthplace":{"city":"Pensacola","state":"FL","coordinates":{"latitude":30.42130899999999,"longitude":-87.2169149}},"reviewed":true},{"name":"Walter Bolden","sessions":[{"studio":"wor","year":1953}],"birthplace":{"city":"Hartford","state":"CT","coordinates":{"latitude":41.76371109999999,"longitude":-72.6850932}},"reviewed":true},{"name":"Clifford Brown","sessions":[{"studio":"wor","year":1953},{"studio":"wor","year":1953}],"birthplace":{"city":"Wilmington","state":"DE","coordinates":{"latitude":39.7458333,"longitude":-75.5466667}},"reviewed":true},{"name":"Elmo Hope","sessions":[{"studio":"wor","year":1953},{"studio":"rvg","year":1953},{"studio":"rvg","year":1954},{"studio":"rvg","year":1954}],"birthplace":{"city":"New York City","state":"NY","coordinates":{"latitude":40.7143528,"longitude":-74.00597309999999}},"reviewed":true},{"name":"Philly Joe Jones","sessions":[{"studio":"wor","year":1953},{"studio":"rvg","year":1953},{"studio":"rvg","year":1956},{"studio":"rvg","year":1956},{"studio":"rvg","year":1956},{"studio":"rvg","year":1957},{"studio":"rvg","year":1957},{"studio":"rvg","year":1957},{"studio":"rvg","year":1957},{"studio":"rvg","year":1957},{"studio":"rvg","year":1957},{"studio":"rvg","year":1958},{"studio":"rvg","year":1958},{"studio":"rvg","year":1959},{"studio":"rvg","year":1960},{"studio":"rvg","year":1960},{"studio":"rvg","year":1961},{"studio":"rvg","year":1961},{"studio":"rvg","year":1961},{"studio":"rvg","year":1961},{"studio":"rvg","year":1961},{"studio":"rvg","year":1961},{"studio":"rvg","year":1961},{"studio":"rvg","year":1961},{"studio":"rvg","year":1961},{"studio":"rvg","year":1962},{"studio":"rvg","year":1962},{"studio":"rvg","year":1963},{"studio":"rvg","year":1963},{"studio":"rvg","year":1966},{"studio":"rvg","year":1966}],"birthplace":{"city":"Philadelphia","state":"PA","coordinates":{"latitude":39.952335,"longitude":-75.16378900000001}},"reviewed":true},{"name":"George Duvivier","sessions":[{"studio":"wor","year":1953},{"studio":"rvg","year":1957},{"studio":"rvg","year":1959}],"birthplace":{"city":"New York City","state":"NY","coordinates":{"latitude":40.7143528,"longitude":-74.00597309999999}},"reviewed":true},{"name":"Urbie Green","sessions":[{"studio":"rvg","year":1953},{"studio":"rvg","year":1953}],"birthplace":{"city":"Mobile","state":"AL","coordinates":{"latitude":30.6943566,"longitude":-88.04305409999999}},"reviewed":true},{"name":"“Sabu” Martinez","sessions":[{"studio":"rvg","year":1953},{"studio":"rvg","year":1954}],"birthplace":{"city":"New York City","state":"NY","coordinates":{"latitude":40.7143528,"longitude":-74.00597309999999}},"reviewed":true},{"name":"Frank Socolow","sessions":[{"studio":"rvg","year":1953}],"birthplace":{"city":"New York City","state":"NY","coordinates":{"latitude":40.7143528,"longitude":-74.00597309999999}},"reviewed":true},{"name":"Sal Salvador","sessions":[{"studio":"rvg","year":1953}],"birthplace":{"city":"Monson","state":"MA","coordinates":{"latitude":42.1042451,"longitude":-72.3189519}},"reviewed":true},{"name":"Kenny O’Brien","sessions":[{"studio":"rvg","year":1953}],"reviewed":true},{"name":"Jimmy Campbell","sessions":[{"studio":"rvg","year":1953},{"studio":"rvg","year":1953},{"studio":"rvg","year":1955}],"birthplace":{"city":"Wilkes-Barre","state":"PA","coordinates":{"latitude":41.2459149,"longitude":-75.88130749999999}},"reviewed":true},{"name":"Doug Mettome","sessions":[{"studio":"rvg","year":1953}],"birthplace":{"city":"Salt Lake City","state":"UT","coordinates":{"latitude":40.7607793,"longitude":-111.8910474}},"reviewed":true},{"name":"John Murtaugh","sessions":[{"studio":"rvg","year":1953}],"reviewed":true},{"name":"Sam Staff","sessions":[{"studio":"rvg","year":1953}],"reviewed":true},{"name":"Jimmy Lyon","sessions":[{"studio":"rvg","year":1953}],"birthplace":{"city":"Jersey City","state":"NJ","coordinates":{"latitude":40.72815749999999,"longitude":-74.0776417}},"reviewed":true},{"name":"Danny Martucci","sessions":[{"studio":"rvg","year":1953}],"reviewed":true},{"name":"Don Arnone","sessions":[{"studio":"rvg","year":1954}],"reviewed":true},{"name":"Benny Powell","sessions":[{"studio":"rvg","year":1954},{"studio":"rvg","year":1957},{"studio":"rvg","year":1964},{"studio":"rvg","year":1964},{"studio":"rvg","year":1967}],"birthplace":{"city":"New Orleans","state":"LA","coordinates":{"latitude":29.95106579999999,"longitude":-90.0715323}},"reviewed":true},{"name":"Frank Foster","sessions":[{"studio":"rvg","year":1954},{"studio":"rvg","year":1954},{"studio":"rvg","year":1954},{"studio":"rvg","year":1967}],"birthplace":{"city":"Cincinnati","state":"OH","coordinates":{"latitude":39.1031182,"longitude":-84.5120196}},"reviewed":true},{"name":"Gildo Mahones","sessions":[{"studio":"rvg","year":1954},{"studio":"rvg","year":1959}],"birthplace":{"city":"New York City","state":"NY","coordinates":{"latitude":40.7143528,"longitude":-74.00597309999999}},"reviewed":true},{"name":"Freeman Lee","sessions":[{"studio":"rvg","year":1954}],"reviewed":true},{"name":"Julius Watkins","sessions":[{"studio":"rvg","year":1954},{"studio":"rvg","year":1955},{"studio":"rvg","year":1961},{"studio":"rvg","year":1963},{"studio":"rvg","year":1963}],"birthplace":{"city":"Detroit","state":"MI","coordinates":{"latitude":42.331427,"longitude":-83.0457538}},"reviewed":true},{"name":"George Butcher","sessions":[{"studio":"rvg","year":1954}],"reviewed":true},{"name":"Perry Lopez","sessions":[{"studio":"rvg","year":1954},{"studio":"rvg","year":1955}],"birthplace":{"city":"New York City","state":"NY","coordinates":{"latitude":40.7143528,"longitude":-74.00597309999999}},"reviewed":true},{"name":"Matthew Gee","sessions":[{"studio":"rvg","year":1954}],"birthplace":{"city":"Houston","state":"TX","coordinates":{"latitude":29.7601927,"longitude":-95.36938959999999}},"reviewed":true},{"name":"Lou Mecca","sessions":[{"studio":"rvg","year":1954},{"studio":"rvg","year":1955},{"studio":"rvg","year":1955}],"reviewed":true},{"name":"Bill Phillips","sessions":[{"studio":"rvg","year":1954},{"studio":"rvg","year":1955}],"reviewed":true},{"name":"Vinnie Thomas","sessions":[{"studio":"rvg","year":1954},{"studio":"rvg","year":1955}],"reviewed":true},{"name":"Charles Mingus","sessions":[{"studio":"rvg","year":1954}],"birthplace":{"city":"Nogales","state":"AZ","coordinates":{"latitude":31.3403775,"longitude":-110.9342532}},"reviewed":true},{"name":"Hank Mobley","sessions":[{"studio":"rvg","year":1954},{"studio":"rvg","year":1955},{"studio":"rvg","year":1955},{"studio":"rvg","year":1955},{"studio":"rvg","year":1955},{"studio":"rvg","year":1955},{"studio":"rvg","year":1955},{"studio":"rvg","year":1956},{"studio":"rvg","year":1956},{"studio":"rvg","year":1957},{"studio":"rvg","year":1957},{"studio":"rvg","year":1957},{"studio":"rvg","year":1957},{"studio":"rvg","year":1957},{"studio":"rvg","year":1957},{"studio":"rvg","year":1957},{"studio":"rvg","year":1957},{"studio":"rvg","year":1957},{"studio":"rvg","year":1957},{"studio":"rvg","year":1957},{"studio":"rvg","year":1958},{"studio":"rvg","year":1959},{"studio":"rvg","year":1959},{"studio":"rvg","year":1959},{"studio":"rvg","year":1959},{"studio":"rvg","year":1960},{"studio":"rvg","year":1960},{"studio":"rvg","year":1960},{"studio":"rvg","year":1960},{"studio":"rvg","year":1960},{"studio":"rvg","year":1960},{"studio":"rvg","year":1961},{"studio":"rvg","year":1961},{"studio":"rvg","year":1961},{"studio":"rvg","year":1963},{"studio":"rvg","year":1963},{"studio":"rvg","year":1963},{"studio":"rvg","year":1963},{"studio":"rvg","year":1963},{"studio":"rvg","year":1965},{"studio":"rvg","year":1965},{"studio":"rvg","year":1965},{"studio":"rvg","year":1965},{"studio":"rvg","year":1965},{"studio":"rvg","year":1965},{"studio":"rvg","year":1965},{"studio":"rvg","year":1966},{"studio":"rvg","year":1966},{"studio":"rvg","year":1966},{"studio":"rvg","year":1966},{"studio":"rvg","year":1966},{"studio":"rvg","year":1967},{"studio":"rvg","year":1967},{"studio":"rvg","year":1967},{"studio":"rvg","year":1967}],"birthplace":{"city":"Eastman","state":"GA","coordinates":{"latitude":32.1976729,"longitude":-83.1776514}},"reviewed":true},{"name":"Doug Watkins","sessions":[{"studio":"rvg","year":1954},{"studio":"rvg","year":1955},{"studio":"rvg","year":1955},{"studio":"rvg","year":1956},{"studio":"rvg","year":1957},{"studio":"rvg","year":1957},{"studio":"rvg","year":1957},{"studio":"rvg","year":1957},{"studio":"rvg","year":1957},{"studio":"rvg","year":1958},{"studio":"rvg","year":1958},{"studio":"rvg","year":1958},{"studio":"rvg","year":1958},{"studio":"rvg","year":1959},{"studio":"rvg","year":1960},{"studio":"rvg","year":1960},{"studio":"rvg","year":1960},{"studio":"rvg","year":1961},{"studio":"rvg","year":1961}],"birthplace":{"city":"Detroit","state":"MI","coordinates":{"latitude":42.331427,"longitude":-83.0457538}},"reviewed":true},{"name":"Cecil Payne","sessions":[{"studio":"rvg","year":1955},{"studio":"rvg","year":1955},{"studio":"rvg","year":1958},{"studio":"rvg","year":1961}],"birthplace":{"city":"Brooklyn","state":"NY","coordinates":{"latitude":40.65,"longitude":-73.95}},"reviewed":true},{"name":"Don Butterfield","sessions":[{"studio":"rvg","year":1955},{"studio":"rvg","year":1964},{"studio":"rvg","year":1964},{"studio":"rvg","year":1966}],"birthplace":{"city":"Centralia","state":"WA","coordinates":{"latitude":46.7162136,"longitude":-122.9542972}},"reviewed":true},{"name":"Duke Jordan","sessions":[{"studio":"rvg","year":1955},{"studio":"rvg","year":1958},{"studio":"rvg","year":1960},{"studio":"rvg","year":1960},{"studio":"rvg","year":1960}],"birthplace":{"city":"New York","state":"NY","coordinates":{"latitude":40.7143528,"longitude":-74.00597309999999}},"reviewed":true},{"name":"Jack Hitchcock","sessions":[{"studio":"rvg","year":1955}],"reviewed":true},{"name":"Vinnie Burke","sessions":[{"studio":"rvg","year":1955}],"birthplace":{"city":"Newark","state":"NJ","coordinates":{"latitude":40.735657,"longitude":-74.1723667}},"reviewed":true},{"name":"Carlos “Patato” Valdes","sessions":[{"studio":"rvg","year":1955},{"studio":"rvg","year":1960},{"studio":"rvg","year":1962},{"studio":"rvg","year":1962},{"studio":"rvg","year":1962},{"studio":"rvg","year":1962}],"birthplace":{"city":"Havana","state":"Cuba","coordinates":{"latitude":23.1168,"longitude":-82.38855699999999}},"reviewed":true},{"name":"Richie Goldberg","sessions":[{"studio":"rvg","year":1955}],"reviewed":true},{"name":"Avery “Kid” Howard","sessions":[{"studio":"rvg","year":1955},{"studio":"rvg","year":1955}],"birthplace":{"city":"New Orleans","state":"LA","coordinates":{"latitude":29.95106579999999,"longitude":-90.0715323}},"reviewed":true},{"name":"Jim Robinson","sessions":[{"studio":"rvg","year":1955},{"studio":"rvg","year":1955}],"birthplace":{"city":"Deer Range","state":"LA","coordinates":{"latitude":29.6091029,"longitude":-89.89617969999999}},"reviewed":true},{"name":"George Lewis","sessions":[{"studio":"rvg","year":1955},{"studio":"rvg","year":1955}],"birthplace":{"city":"New Orleans","state":"LA","coordinates":{"latitude":29.95106579999999,"longitude":-90.0715323}},"reviewed":true},{"name":"Alton Purnell","sessions":[{"studio":"rvg","year":1955},{"studio":"rvg","year":1955}],"birthplace":{"city":"New Orleans","state":"LA","coordinates":{"latitude":29.95106579999999,"longitude":-90.0715323}},"reviewed":true},{"name":"George Guesnon","sessions":[{"studio":"rvg","year":1955},{"studio":"rvg","year":1955}],"birthplace":{"city":"New Orleans","state":"LA","coordinates":{"latitude":29.95106579999999,"longitude":-90.0715323}},"reviewed":true},{"name":"Alcide “Slow Drag” Pavageau","sessions":[{"studio":"rvg","year":1955},{"studio":"rvg","year":1955}],"birthplace":{"city":"New Orleans","state":"LA","coordinates":{"latitude":29.95106579999999,"longitude":-90.0715323}},"reviewed":true},{"name":"Joe Watkins","sessions":[{"studio":"rvg","year":1955},{"studio":"rvg","year":1955}],"birthplace":{"city":"New Orleans","state":"LA","coordinates":{"latitude":29.95106579999999,"longitude":-90.0715323}},"reviewed":true},{"name":"Herbie Nichols","sessions":[{"studio":"rvg","year":1955},{"studio":"rvg","year":1955},{"studio":"rvg","year":1955},{"studio":"rvg","year":1955},{"studio":"rvg","year":1956}],"birthplace":{"city":"New York","state":"NY","coordinates":{"latitude":40.7143528,"longitude":-74.00597309999999}},"reviewed":true},{"name":"Paul Chambers","sessions":[{"studio":"rvg","year":1955},{"studio":"rvg","year":1956},{"studio":"rvg","year":1956},{"studio":"rvg","year":1956},{"studio":"rvg","year":1956},{"studio":"rvg","year":1957},{"studio":"rvg","year":1957},{"studio":"rvg","year":1957},{"studio":"rvg","year":1957},{"studio":"rvg","year":1957},{"studio":"rvg","year":1957},{"studio":"rvg","year":1957},{"studio":"rvg","year":1957},{"studio":"rvg","year":1957},{"studio":"rvg","year":1957},{"studio":"rvg","year":1957},{"studio":"rvg","year":1957},{"studio":"rvg","year":1957},{"studio":"rvg","year":1957},{"studio":"rvg","year":1957},{"studio":"rvg","year":1957},{"studio":"rvg","year":1957},{"studio":"rvg","year":1957},{"studio":"rvg","year":1957},{"studio":"rvg","year":1958},{"studio":"rvg","year":1958},{"studio":"rvg","year":1958},{"studio":"rvg","year":1958},{"studio":"rvg","year":1958},{"studio":"rvg","year":1958},{"studio":"rvg","year":1959},{"studio":"rvg","year":1959},{"studio":"rvg","year":1959},{"studio":"rvg","year":1959},{"studio":"rvg","year":1959},{"studio":"rvg","year":1959},{"studio":"rvg","year":1959},{"studio":"rvg","year":1960},{"studio":"rvg","year":1960},{"studio":"rvg","year":1960},{"studio":"rvg","year":1960},{"studio":"rvg","year":1960},{"studio":"rvg","year":1960},{"studio":"rvg","year":1960},{"studio":"rvg","year":1960},{"studio":"rvg","year":1960},{"studio":"rvg","year":1960},{"studio":"rvg","year":1960},{"studio":"rvg","year":1961},{"studio":"rvg","year":1961},{"studio":"rvg","year":1961},{"studio":"rvg","year":1961},{"studio":"rvg","year":1961},{"studio":"rvg","year":1961},{"studio":"rvg","year":1961},{"studio":"rvg","year":1961},{"studio":"rvg","year":1963},{"studio":"rvg","year":1965},{"studio":"rvg","year":1966},{"studio":"rvg","year":1966}],"birthplace":{"city":"Pittsburgh","state":"PA","coordinates":{"latitude":40.44062479999999,"longitude":-79.9958864}},"reviewed":true},{"name":"Jimmy Smith","sessions":[{"studio":"rvg","year":1956},{"studio":"rvg","year":1956},{"studio":"rvg","year":1956},{"studio":"rvg","year":1956},{"studio":"rvg","year":1956},{"studio":"rvg","year":1958},{"studio":"rvg","year":1958},{"studio":"rvg","year":1959},{"studio":"rvg","year":1959},{"studio":"rvg","year":1960},{"studio":"rvg","year":1960},{"studio":"rvg","year":1960},{"studio":"rvg","year":1960},{"studio":"rvg","year":1961},{"studio":"rvg","year":1962},{"studio":"rvg","year":1963},{"studio":"rvg","year":1963},{"studio":"rvg","year":1963},{"studio":"rvg","year":1963}],"birthplace":{"city":"Norristown","state":"PA","coordinates":{"latitude":40.121497,"longitude":-75.3399048}},"reviewed":true},{"name":"Thornel Schwartz","sessions":[{"studio":"rvg","year":1956},{"studio":"rvg","year":1956},{"studio":"rvg","year":1956},{"studio":"rvg","year":1956},{"studio":"rvg","year":1956}],"birthplace":{"city":"Philadelphia","state":"PA","coordinates":{"latitude":39.952335,"longitude":-75.16378900000001}},"reviewed":true},{"name":"Bay Perry","sessions":[{"studio":"rvg","year":1956}],"reviewed":true},{"name":"Donald Bailey","sessions":[{"studio":"rvg","year":1956},{"studio":"rvg","year":1956},{"studio":"rvg","year":1956},{"studio":"rvg","year":1956},{"studio":"rvg","year":1958},{"studio":"rvg","year":1958},{"studio":"rvg","year":1958},{"studio":"rvg","year":1959},{"studio":"rvg","year":1959},{"studio":"rvg","year":1960},{"studio":"rvg","year":1960},{"studio":"rvg","year":1960},{"studio":"rvg","year":1960},{"studio":"rvg","year":1961},{"studio":"rvg","year":1962},{"studio":"rvg","year":1963},{"studio":"rvg","year":1963},{"studio":"rvg","year":1963},{"studio":"rvg","year":1963},{"studio":"rvg","year":1963}],"birthplace":{"city":"Philadelphia","state":"PA","coordinates":{"latitude":39.952335,"longitude":-75.16378900000001}},"reviewed":true},{"name":"Joe Cinderella","sessions":[{"studio":"rvg","year":1956}],"birthplace":{"city":"Newark","state":"NJ","coordinates":{"latitude":40.735657,"longitude":-74.1723667}},"reviewed":true},{"name":"Ed Thigpen","sessions":[{"studio":"rvg","year":1956},{"studio":"rvg","year":1956}],"birthplace":{"city":"Chicago","state":"IL","coordinates":{"latitude":41.8781136,"longitude":-87.6297982}},"reviewed":true},{"name":"Johnny Griffin","sessions":[{"studio":"rvg","year":1956},{"studio":"rvg","year":1957},{"studio":"rvg","year":1957}],"birthplace":{"city":"Chicago","state":"IL","coordinates":{"latitude":41.8781136,"longitude":-87.6297982}},"reviewed":true},{"name":"Teddy Kotick","sessions":[{"studio":"rvg","year":1956},{"studio":"rvg","year":1957},{"studio":"rvg","year":1958}],"birthplace":{"city":"Haverhill","state":"MA","coordinates":{"latitude":42.7762015,"longitude":-71.0772796}},"reviewed":true},{"name":"Tommy Flanagan","sessions":[{"studio":"rvg","year":1956},{"studio":"rvg","year":1956},{"studio":"rvg","year":1956},{"studio":"rvg","year":1957},{"studio":"rvg","year":1957},{"studio":"rvg","year":1958},{"studio":"rvg","year":1959},{"studio":"rvg","year":1961},{"studio":"rvg","year":1964}],"birthplace":{"city":"Detroit","state":"MI","coordinates":{"latitude":42.331427,"longitude":-83.0457538}},"reviewed":true},{"name":"Kenny Burrell","sessions":[{"studio":"rvg","year":1956},{"studio":"rvg","year":1956},{"studio":"rvg","year":1956},{"studio":"rvg","year":1956},{"studio":"rvg","year":1957},{"studio":"rvg","year":1957},{"studio":"rvg","year":1957},{"studio":"rvg","year":1957},{"studio":"rvg","year":1958},{"studio":"rvg","year":1958},{"studio":"rvg","year":1959},{"studio":"rvg","year":1959},{"studio":"rvg","year":1959},{"studio":"rvg","year":1960},{"studio":"rvg","year":1962},{"studio":"rvg","year":1962},{"studio":"rvg","year":1962},{"studio":"rvg","year":1962},{"studio":"rvg","year":1962},{"studio":"rvg","year":1962},{"studio":"rvg","year":1962},{"studio":"rvg","year":1963},{"studio":"rvg","year":1963},{"studio":"rvg","year":1963},{"studio":"rvg","year":1963},{"studio":"rvg","year":1963},{"studio":"rvg","year":1964},{"studio":"rvg","year":1964},{"studio":"rvg","year":1965},{"studio":"rvg","year":1965}],"birthplace":{"city":"Detroit","state":"MI","coordinates":{"latitude":42.331427,"longitude":-83.0457538}},"reviewed":true},{"name":"Candido","sessions":[{"studio":"rvg","year":1956},{"studio":"rvg","year":1956}],"birthplace":{"city":"Havana","state":"Cuba","coordinates":{"latitude":23.1168,"longitude":-82.38855699999999}},"reviewed":true},{"name":"Thad Jones","sessions":[{"studio":"rvg","year":1956},{"studio":"rvg","year":1956},{"studio":"rvg","year":1957}],"birthplace":{"city":"Pontiac","state":"MI","coordinates":{"latitude":42.6389216,"longitude":-83.29104679999999}},"reviewed":true},{"name":"Billy Mitchell","sessions":[{"studio":"rvg","year":1956},{"studio":"rvg","year":1956}],"birthplace":{"city":"Kansas City","state":"MO","coordinates":{"latitude":39.0997265,"longitude":-94.5785667}},"reviewed":true},{"name":"Eddie Jones","sessions":[{"studio":"rvg","year":1956}],"birthplace":{"city":"Greenwood","state":"MS","coordinates":{"latitude":33.5162315,"longitude":-90.1795281}},"reviewed":true},{"name":"Elvin Jones","sessions":[{"studio":"rvg","year":1956},{"studio":"rvg","year":1957},{"studio":"rvg","year":1957},{"studio":"rvg","year":1958},{"studio":"rvg","year":1959},{"studio":"rvg","year":1961},{"studio":"rvg","year":1964},{"studio":"rvg","year":1964},{"studio":"rvg","year":1964},{"studio":"rvg","year":1964},{"studio":"rvg","year":1964},{"studio":"rvg","year":1964},{"studio":"rvg","year":1964},{"studio":"rvg","year":1964},{"studio":"rvg","year":1964},{"studio":"rvg","year":1964},{"studio":"rvg","year":1964},{"studio":"rvg","year":1964},{"studio":"rvg","year":1964},{"studio":"rvg","year":1964},{"studio":"rvg","year":1965},{"studio":"rvg","year":1965},{"studio":"rvg","year":1966},{"studio":"rvg","year":1967}],"birthplace":{"city":"Pontiac","state":"MI","coordinates":{"latitude":42.6389216,"longitude":-83.29104679999999}},"reviewed":true},{"name":"Barry Harris","sessions":[{"studio":"rvg","year":1956},{"studio":"rvg","year":1963},{"studio":"rvg","year":1965},{"studio":"rvg","year":1965},{"studio":"rvg","year":1965},{"studio":"rvg","year":1965}],"birthplace":{"city":"Detroit","state":"MI","coordinates":{"latitude":42.331427,"longitude":-83.0457538}},"reviewed":true},{"name":"Jerry Lloyd","sessions":[{"studio":"rvg","year":1956}],"reviewed":true},{"name":"Zoot Sims","sessions":[{"studio":"rvg","year":1956}],"birthplace":{"city":"Inglewood","state":"CA","coordinates":{"latitude":33.9616801,"longitude":-118.3531311}},"reviewed":true},{"name":"Jutta Hipp","sessions":[{"studio":"rvg","year":1956}],"birthplace":{"city":"Leipzig","state":"Germany","coordinates":{"latitude":51.3396955,"longitude":12.3730747}},"reviewed":true},{"name":"Ahmed Abdul-Malik","sessions":[{"studio":"rvg","year":1956},{"studio":"rvg","year":1962},{"studio":"rvg","year":1963}],"birthplace":{"city":"Brooklyn","state":"NY","coordinates":{"latitude":40.65,"longitude":-73.95}},"reviewed":true},{"name":"Donald Byrd","sessions":[{"studio":"rvg","year":1956},{"studio":"rvg","year":1956},{"studio":"rvg","year":1956},{"studio":"rvg","year":1956},{"studio":"rvg","year":1957},{"studio":"rvg","year":1957},{"studio":"rvg","year":1957},{"studio":"rvg","year":1957},{"studio":"rvg","year":1957},{"studio":"rvg","year":1958},{"studio":"rvg","year":1958},{"studio":"rvg","year":1959},{"studio":"rvg","year":1959},{"studio":"rvg","year":1959},{"studio":"rvg","year":1959},{"studio":"rvg","year":1959},{"studio":"rvg","year":1959},{"studio":"rvg","year":1960},{"studio":"rvg","year":1960},{"studio":"rvg","year":1960},{"studio":"rvg","year":1961},{"studio":"rvg","year":1961},{"studio":"rvg","year":1961},{"studio":"rvg","year":1961},{"studio":"rvg","year":1961},{"studio":"rvg","year":1963},{"studio":"rvg","year":1963},{"studio":"rvg","year":1963},{"studio":"rvg","year":1963},{"studio":"rvg","year":1963},{"studio":"rvg","year":1964},{"studio":"rvg","year":1964},{"studio":"rvg","year":1964},{"studio":"rvg","year":1964},{"studio":"rvg","year":1964},{"studio":"rvg","year":1964},{"studio":"rvg","year":1966},{"studio":"rvg","year":1967},{"studio":"rvg","year":1967},{"studio":"rvg","year":1967},{"studio":"rvg","year":1967},{"studio":"rvg","year":1967},{"studio":"rvg","year":1967},{"studio":"rvg","year":1967}],"birthplace":{"city":"Detroit","state":"MI","coordinates":{"latitude":42.331427,"longitude":-83.0457538}},"reviewed":true},{"name":"John Coltrane","sessions":[{"studio":"rvg","year":1956},{"studio":"rvg","year":1957},{"studio":"rvg","year":1957},{"studio":"rvg","year":1957}],"birthplace":{"city":"Hamlet","state":"NC","coordinates":{"latitude":34.8848775,"longitude":-79.6942222}},"reviewed":true},{"name":"Ira Sullivan","sessions":[{"studio":"rvg","year":1956}],"birthplace":{"city":"Washington","state":"D.C.","coordinates":{"latitude":38.8951118,"longitude":-77.0363658}},"reviewed":true},{"name":"J.R. Monterose","sessions":[{"studio":"rvg","year":1956}],"birthplace":{"city":"Detroit","state":"MI","coordinates":{"latitude":42.331427,"longitude":-83.0457538}},"reviewed":true},{"name":"Wilbur Ware","sessions":[{"studio":"rvg","year":1956},{"studio":"rvg","year":1956},{"studio":"rvg","year":1957},{"studio":"rvg","year":1957},{"studio":"rvg","year":1961},{"studio":"rvg","year":1961},{"studio":"rvg","year":1961}],"birthplace":{"city":"Chicago","state":"IL","coordinates":{"latitude":41.8781136,"longitude":-87.6297982}},"reviewed":true},{"name":"Lee Morgan","sessions":[{"studio":"rvg","year":1956},{"studio":"rvg","year":1956},{"studio":"rvg","year":1957},{"studio":"rvg","year":1957},{"studio":"rvg","year":1957},{"studio":"rvg","year":1957},{"studio":"rvg","year":1957},{"studio":"rvg","year":1957},{"studio":"rvg","year":1957},{"studio":"rvg","year":1958},{"studio":"rvg","year":1958},{"studio":"rvg","year":1958},{"studio":"rvg","year":1958},{"studio":"rvg","year":1959},{"studio":"rvg","year":1959},{"studio":"rvg","year":1960},{"studio":"rvg","year":1960},{"studio":"rvg","year":1960},{"studio":"rvg","year":1960},{"studio":"rvg","year":1961},{"studio":"rvg","year":1961},{"studio":"rvg","year":1961},{"studio":"rvg","year":1961},{"studio":"rvg","year":1963},{"studio":"rvg","year":1963},{"studio":"rvg","year":1963},{"studio":"rvg","year":1964},{"studio":"rvg","year":1964},{"studio":"rvg","year":1964},{"studio":"rvg","year":1964},{"studio":"rvg","year":1964},{"studio":"rvg","year":1964},{"studio":"rvg","year":1964},{"studio":"rvg","year":1964},{"studio":"rvg","year":1965},{"studio":"rvg","year":1965},{"studio":"rvg","year":1965},{"studio":"rvg","year":1965},{"studio":"rvg","year":1965},{"studio":"rvg","year":1965},{"studio":"rvg","year":1965},{"studio":"rvg","year":1965},{"studio":"rvg","year":1965},{"studio":"rvg","year":1965},{"studio":"rvg","year":1965},{"studio":"rvg","year":1966},{"studio":"rvg","year":1966},{"studio":"rvg","year":1966},{"studio":"rvg","year":1966},{"studio":"rvg","year":1966},{"studio":"rvg","year":1966},{"studio":"rvg","year":1966},{"studio":"rvg","year":1967},{"studio":"rvg","year":1967},{"studio":"rvg","year":1967},{"studio":"rvg","year":1967},{"studio":"rvg","year":1967},{"studio":"rvg","year":1967},{"studio":"rvg","year":1967},{"studio":"rvg","year":1967}],"birthplace":{"city":"Philadelphia","state":"PA","coordinates":{"latitude":39.952335,"longitude":-75.16378900000001}},"reviewed":true},{"name":"Clarence Sharpe","sessions":[{"studio":"rvg","year":1956}],"reviewed":true},{"name":"Louis Hayes","sessions":[{"studio":"rvg","year":1956},{"studio":"rvg","year":1957},{"studio":"rvg","year":1957},{"studio":"rvg","year":1957},{"studio":"rvg","year":1957},{"studio":"rvg","year":1957},{"studio":"rvg","year":1958},{"studio":"rvg","year":1958},{"studio":"rvg","year":1959},{"studio":"rvg","year":1959},{"studio":"rvg","year":1959},{"studio":"rvg","year":1959},{"studio":"rvg","year":1960},{"studio":"rvg","year":1960},{"studio":"rvg","year":1961},{"studio":"rvg","year":1962},{"studio":"rvg","year":1962}],"birthplace":{"city":"Detroit","state":"MI","coordinates":{"latitude":42.331427,"longitude":-83.0457538}},"reviewed":true},{"name":"Charlie Persip","sessions":[{"studio":"rvg","year":1956},{"studio":"rvg","year":1957},{"studio":"rvg","year":1958},{"studio":"rvg","year":1958}],"birthplace":{"city":"Morristown","state":"NJ","coordinates":{"latitude":40.79676670000001,"longitude":-74.4815438}},"reviewed":true},{"name":"Herman Foster","sessions":[{"studio":"rvg","year":1957},{"studio":"rvg","year":1957},{"studio":"rvg","year":1958},{"studio":"rvg","year":1958},{"studio":"rvg","year":1961}],"birthplace":{"city":"Philadelphia","state":"PA","coordinates":{"latitude":39.952335,"longitude":-75.16378900000001}},"reviewed":true},{"name":"Peck Morrison","sessions":[{"studio":"rvg","year":1957},{"studio":"rvg","year":1957},{"studio":"rvg","year":1958},{"studio":"rvg","year":1958}],"birthplace":{"city":"Lancaster","state":"PA","coordinates":{"latitude":40.0378755,"longitude":-76.3055144}},"reviewed":true},{"name":"John Gilmore","sessions":[{"studio":"rvg","year":1957},{"studio":"rvg","year":1964},{"studio":"rvg","year":1964},{"studio":"rvg","year":1965}],"birthplace":{"city":"Summit","state":"MO","coordinates":{"latitude":38.6127803,"longitude":-92.1253854}},"reviewed":true},{"name":"Clifford Jordan","sessions":[{"studio":"rvg","year":1957},{"studio":"rvg","year":1957},{"studio":"rvg","year":1957},{"studio":"rvg","year":1957},{"studio":"rvg","year":1957},{"studio":"rvg","year":1958}],"birthplace":{"city":"Chicago","state":"IL","coordinates":{"latitude":41.8781136,"longitude":-87.6297982}},"reviewed":true},{"name":"Art Farmer","sessions":[{"studio":"rvg","year":1957},{"studio":"rvg","year":1957},{"studio":"rvg","year":1957},{"studio":"rvg","year":1957},{"studio":"rvg","year":1957},{"studio":"rvg","year":1957},{"studio":"rvg","year":1958},{"studio":"rvg","year":1958}],"birthplace":{"city":"Council Bluffs","state":"IA","coordinates":{"latitude":41.2619444,"longitude":-95.8608333}},"reviewed":true},{"name":"Benny Golson","sessions":[{"studio":"rvg","year":1957},{"studio":"rvg","year":1958}],"birthplace":{"city":"Philadelphia","state":"PA","coordinates":{"latitude":39.952335,"longitude":-75.16378900000001}},"reviewed":true},{"name":"John Jenkins","sessions":[{"studio":"rvg","year":1957},{"studio":"rvg","year":1957},{"studio":"rvg","year":1957}],"birthplace":{"city":"Chicago","state":"IL","coordinates":{"latitude":41.8781136,"longitude":-87.6297982}},"reviewed":true},{"name":"Bobby Timmons","sessions":[{"studio":"rvg","year":1957},{"studio":"rvg","year":1957},{"studio":"rvg","year":1957},{"studio":"rvg","year":1958},{"studio":"rvg","year":1959},{"studio":"rvg","year":1960},{"studio":"rvg","year":1960},{"studio":"rvg","year":1960},{"studio":"rvg","year":1960},{"studio":"rvg","year":1960},{"studio":"rvg","year":1961},{"studio":"rvg","year":1961},{"studio":"rvg","year":1961},{"studio":"rvg","year":1961}],"birthplace":{"city":"Philadelphia","state":"PA","coordinates":{"latitude":39.952335,"longitude":-75.16378900000001}},"reviewed":true},{"name":"Curtis Fuller","sessions":[{"studio":"rvg","year":1957},{"studio":"rvg","year":1957},{"studio":"rvg","year":1957},{"studio":"rvg","year":1957},{"studio":"rvg","year":1957},{"studio":"rvg","year":1957},{"studio":"rvg","year":1957},{"studio":"rvg","year":1957},{"studio":"rvg","year":1957},{"studio":"rvg","year":1957},{"studio":"rvg","year":1958},{"studio":"rvg","year":1961},{"studio":"rvg","year":1961},{"studio":"rvg","year":1961},{"studio":"rvg","year":1961},{"studio":"rvg","year":1962},{"studio":"rvg","year":1964},{"studio":"rvg","year":1964},{"studio":"rvg","year":1964},{"studio":"rvg","year":1964},{"studio":"rvg","year":1964},{"studio":"rvg","year":1964},{"studio":"rvg","year":1964},{"studio":"rvg","year":1965},{"studio":"rvg","year":1966},{"studio":"rvg","year":1967}],"birthplace":{"city":"Detroit","state":"MI","coordinates":{"latitude":42.331427,"longitude":-83.0457538}},"reviewed":true},{"name":"Ray Bryant","sessions":[{"studio":"rvg","year":1957},{"studio":"rvg","year":1957}],"birthplace":{"city":"Philadelphia","state":"PA","coordinates":{"latitude":39.952335,"longitude":-75.16378900000001}},"reviewed":true},{"name":"Dave Bailey","sessions":[{"studio":"rvg","year":1957},{"studio":"rvg","year":1958},{"studio":"rvg","year":1959},{"studio":"rvg","year":1961},{"studio":"rvg","year":1961},{"studio":"rvg","year":1961}],"birthplace":{"city":"Portsmouth","state":"VA","coordinates":{"latitude":36.8354258,"longitude":-76.2982742}},"reviewed":true},{"name":"Ray Barretto","sessions":[{"studio":"rvg","year":1957},{"studio":"rvg","year":1958},{"studio":"rvg","year":1958},{"studio":"rvg","year":1959},{"studio":"rvg","year":1960},{"studio":"rvg","year":1960},{"studio":"rvg","year":1963},{"studio":"rvg","year":1963},{"studio":"rvg","year":1964},{"studio":"rvg","year":1964}],"birthplace":{"city":"New York","state":"NY","coordinates":{"latitude":40.7143528,"longitude":-74.00597309999999}},"reviewed":true},{"name":"Bill Hardman","sessions":[{"studio":"rvg","year":1957},{"studio":"rvg","year":1960},{"studio":"rvg","year":1960}],"birthplace":{"city":"Cleveland","state":"OH","coordinates":{"latitude":41.4994954,"longitude":-81.6954088}},"reviewed":true},{"name":"Curtis Porter","sessions":[{"studio":"rvg","year":1957}],"birthplace":{"city":"Philadelphia","state":"PA","coordinates":{"latitude":39.952335,"longitude":-75.16378900000001}},"reviewed":true},{"name":"Sonny Clark","sessions":[{"studio":"rvg","year":1957},{"studio":"rvg","year":1957},{"studio":"rvg","year":1957},{"studio":"rvg","year":1957},{"studio":"rvg","year":1957},{"studio":"rvg","year":1957},{"studio":"rvg","year":1957},{"studio":"rvg","year":1957},{"studio":"rvg","year":1957},{"studio":"rvg","year":1957},{"studio":"rvg","year":1957},{"studio":"rvg","year":1957},{"studio":"rvg","year":1957},{"studio":"rvg","year":1957},{"studio":"rvg","year":1958},{"studio":"rvg","year":1958},{"studio":"rvg","year":1958},{"studio":"rvg","year":1958},{"studio":"rvg","year":1958},{"studio":"rvg","year":1958},{"studio":"rvg","year":1958},{"studio":"rvg","year":1958},{"studio":"rvg","year":1958},{"studio":"rvg","year":1959},{"studio":"rvg","year":1959},{"studio":"rvg","year":1961},{"studio":"rvg","year":1961},{"studio":"rvg","year":1961},{"studio":"rvg","year":1961},{"studio":"rvg","year":1961},{"studio":"rvg","year":1961},{"studio":"rvg","year":1961},{"studio":"rvg","year":1962},{"studio":"rvg","year":1962},{"studio":"rvg","year":1962},{"studio":"rvg","year":1962},{"studio":"rvg","year":1962},{"studio":"rvg","year":1962},{"studio":"rvg","year":1962},{"studio":"rvg","year":1962},{"studio":"rvg","year":1962},{"studio":"rvg","year":1962},{"studio":"rvg","year":1962},{"studio":"rvg","year":1962}],"birthplace":{"city":"Herminie","state":"PA","coordinates":{"latitude":40.2634034,"longitude":-79.71754349999999}},"reviewed":true},{"name":"Hank Jones","sessions":[{"studio":"rvg","year":1957},{"studio":"rvg","year":1958},{"studio":"rvg","year":1960},{"studio":"rvg","year":1963},{"studio":"rvg","year":1963}],"birthplace":{"city":"Vicksburg","state":"MS","coordinates":{"latitude":32.3526456,"longitude":-90.877882}},"reviewed":true},{"name":"Tate Houston","sessions":[{"studio":"rvg","year":1957}],"reviewed":true},{"name":"Dannie Richmond","sessions":[{"studio":"rvg","year":1957}],"birthplace":{"city":"New York","state":"NY","coordinates":{"latitude":40.7143528,"longitude":-74.00597309999999}},"reviewed":true},{"name":"Jimmy Rowser","sessions":[{"studio":"rvg","year":1957}],"birthplace":{"city":"Philadelphia","state":"PA","coordinates":{"latitude":39.952335,"longitude":-75.16378900000001}},"reviewed":true},{"name":"George Coleman","sessions":[{"studio":"rvg","year":1957},{"studio":"rvg","year":1964},{"studio":"rvg","year":1965}],"birthplace":{"city":"Memphis","state":"TN","coordinates":{"latitude":35.1495343,"longitude":-90.0489801}},"reviewed":true},{"name":"Pepper Adams","sessions":[{"studio":"rvg","year":1957},{"studio":"rvg","year":1957},{"studio":"rvg","year":1958},{"studio":"rvg","year":1959},{"studio":"rvg","year":1961},{"studio":"rvg","year":1961},{"studio":"rvg","year":1961},{"studio":"rvg","year":1965},{"studio":"rvg","year":1966},{"studio":"rvg","year":1966},{"studio":"rvg","year":1966},{"studio":"rvg","year":1966},{"studio":"rvg","year":1967},{"studio":"rvg","year":1967},{"studio":"rvg","year":1967},{"studio":"rvg","year":1967},{"studio":"rvg","year":1967},{"studio":"rvg","year":1967},{"studio":"rvg","year":1967},{"studio":"rvg","year":1967}],"birthplace":{"city":"Highland Park","state":"MI","coordinates":{"latitude":42.4055925,"longitude":-83.096868}},"reviewed":true},{"name":"Kenny Dennis","sessions":[{"studio":"rvg","year":1957}],"birthplace":{"city":"Philadelphia","state":"PA","coordinates":{"latitude":39.952335,"longitude":-75.16378900000001}},"reviewed":true},{"name":"George Tucker","sessions":[{"studio":"rvg","year":1957},{"studio":"rvg","year":1957},{"studio":"rvg","year":1958},{"studio":"rvg","year":1958},{"studio":"rvg","year":1959},{"studio":"rvg","year":1960},{"studio":"rvg","year":1960},{"studio":"rvg","year":1960},{"studio":"rvg","year":1960},{"studio":"rvg","year":1960},{"studio":"rvg","year":1960},{"studio":"rvg","year":1961},{"studio":"rvg","year":1961},{"studio":"rvg","year":1961},{"studio":"rvg","year":1961}],"birthplace":{"city":"Palatka","state":"FL","coordinates":{"latitude":29.6485801,"longitude":-81.6375819}},"reviewed":true},{"name":"Pete LaRoca","sessions":[{"studio":"rvg","year":1957},{"studio":"rvg","year":1959},{"studio":"rvg","year":1961},{"studio":"rvg","year":1963},{"studio":"rvg","year":1963},{"studio":"rvg","year":1963},{"studio":"rvg","year":1965},{"studio":"rvg","year":1965}],"birthplace":{"city":"New York","state":"NY","coordinates":{"latitude":40.7143528,"longitude":-74.00597309999999}},"reviewed":true},{"name":"George Joyner","sessions":[{"studio":"rvg","year":1957}],"birthplace":{"city":"Memphis","state":"TN","coordinates":{"latitude":35.1495343,"longitude":-90.0489801}},"reviewed":true},{"name":"Slide Hampton","sessions":[{"studio":"rvg","year":1958}],"birthplace":{"city":"Jennette","state":"PA","coordinates":{"latitude":40.3281246,"longitude":-79.6153198}},"reviewed":true},{"name":"Louis Smith","sessions":[{"studio":"rvg","year":1958},{"studio":"rvg","year":1958},{"studio":"rvg","year":1958}],"birthplace":{"city":"Memphis","state":"TN","coordinates":{"latitude":35.1495343,"longitude":-90.0489801}},"reviewed":true},{"name":"Cannonball Adderley","sessions":[{"studio":"rvg","year":1958},{"studio":"rvg","year":1958},{"studio":"rvg","year":1958}],"birthplace":{"city":"Tampa","state":"FL","coordinates":{"latitude":27.950575,"longitude":-82.4571776}},"reviewed":true},{"name":"Sam Jones","sessions":[{"studio":"rvg","year":1958},{"studio":"rvg","year":1958},{"studio":"rvg","year":1958},{"studio":"rvg","year":1959},{"studio":"rvg","year":1959},{"studio":"rvg","year":1959},{"studio":"rvg","year":1960},{"studio":"rvg","year":1960},{"studio":"rvg","year":1960},{"studio":"rvg","year":1960},{"studio":"rvg","year":1960},{"studio":"rvg","year":1960},{"studio":"rvg","year":1960},{"studio":"rvg","year":1960},{"studio":"rvg","year":1961},{"studio":"rvg","year":1962},{"studio":"rvg","year":1962},{"studio":"rvg","year":1962},{"studio":"rvg","year":1962},{"studio":"rvg","year":1963},{"studio":"rvg","year":1963}],"birthplace":{"city":"Jacksonville","state":"FL","coordinates":{"latitude":30.3321838,"longitude":-81.65565099999999}},"reviewed":true},{"name":"Tina Brooks","sessions":[{"studio":"rvg","year":1958},{"studio":"rvg","year":1960},{"studio":"rvg","year":1960},{"studio":"rvg","year":1960},{"studio":"rvg","year":1960},{"studio":"rvg","year":1960},{"studio":"rvg","year":1961},{"studio":"rvg","year":1961}],"birthplace":{"city":"Fayetteville","state":"NC","coordinates":{"latitude":35.0526641,"longitude":-78.87835849999999}},"reviewed":true},{"name":"Bennie Green","sessions":[{"studio":"rvg","year":1958},{"studio":"rvg","year":1958},{"studio":"rvg","year":1958},{"studio":"rvg","year":1959},{"studio":"rvg","year":1962}],"birthplace":{"city":"Chicago","state":"IL","coordinates":{"latitude":41.8781136,"longitude":-87.6297982}},"reviewed":true},{"name":"Charlie Rouse","sessions":[{"studio":"rvg","year":1958},{"studio":"rvg","year":1958},{"studio":"rvg","year":1959},{"studio":"rvg","year":1961},{"studio":"rvg","year":1962},{"studio":"rvg","year":1962},{"studio":"rvg","year":1963},{"studio":"rvg","year":1965}],"birthplace":{"city":"Washington","state":"D.C.","coordinates":{"latitude":38.8951118,"longitude":-77.0363658}},"reviewed":true},{"name":"Joe Knight","sessions":[{"studio":"rvg","year":1958}],"birthplace":{"city":"Brooklyn","state":"NY","coordinates":{"latitude":40.65,"longitude":-73.95}},"reviewed":true},{"name":"Gene Ammons","sessions":[{"studio":"rvg","year":1958}],"birthplace":{"city":"Chicago","state":"IL","coordinates":{"latitude":41.8781136,"longitude":-87.6297982}},"reviewed":true},{"name":"Billy Root","sessions":[{"studio":"rvg","year":1958}],"birthplace":{"city":"Philadelphia","state":"PA","coordinates":{"latitude":39.952335,"longitude":-75.16378900000001}},"reviewed":true},{"name":"Junior Cook","sessions":[{"studio":"rvg","year":1958},{"studio":"rvg","year":1959},{"studio":"rvg","year":1959},{"studio":"rvg","year":1959},{"studio":"rvg","year":1960},{"studio":"rvg","year":1960},{"studio":"rvg","year":1962},{"studio":"rvg","year":1962},{"studio":"rvg","year":1963},{"studio":"rvg","year":1963},{"studio":"rvg","year":1963},{"studio":"rvg","year":1963},{"studio":"rvg","year":1963},{"studio":"rvg","year":1964},{"studio":"rvg","year":1964},{"studio":"rvg","year":1965},{"studio":"rvg","year":1965},{"studio":"rvg","year":1966},{"studio":"rvg","year":1966},{"studio":"rvg","year":1967}],"birthplace":{"city":"Pensacola","state":"FL","coordinates":{"latitude":30.42130899999999,"longitude":-87.2169149}},"reviewed":true},{"name":"Gene Taylor","sessions":[{"studio":"rvg","year":1958},{"studio":"rvg","year":1959},{"studio":"rvg","year":1959},{"studio":"rvg","year":1959},{"studio":"rvg","year":1959},{"studio":"rvg","year":1959},{"studio":"rvg","year":1959},{"studio":"rvg","year":1959},{"studio":"rvg","year":1960},{"studio":"rvg","year":1960},{"studio":"rvg","year":1962},{"studio":"rvg","year":1962},{"studio":"rvg","year":1963},{"studio":"rvg","year":1963},{"studio":"rvg","year":1963},{"studio":"rvg","year":1963},{"studio":"rvg","year":1963},{"studio":"rvg","year":1963},{"studio":"rvg","year":1964},{"studio":"rvg","year":1964},{"studio":"rvg","year":1965},{"studio":"rvg","year":1965},{"studio":"rvg","year":1966},{"studio":"rvg","year":1966},{"studio":"rvg","year":1967},{"studio":"rvg","year":1967}],"birthplace":{"city":"Toledo","state":"OH","coordinates":{"latitude":41.6639383,"longitude":-83.55521200000001}},"reviewed":true},{"name":"Bill Henderson","sessions":[{"studio":"rvg","year":1958},{"studio":"rvg","year":1958}],"birthplace":{"city":"Chicago","state":"IL","coordinates":{"latitude":41.8781136,"longitude":-87.6297982}},"reviewed":true},{"name":"Don Bailey","sessions":[{"studio":"rvg","year":1958}],"birthplace":{"city":"Philadelphia","state":"PA","coordinates":{"latitude":39.952335,"longitude":-75.16378900000001}},"reviewed":true},{"name":"Gene Harris","sessions":[{"studio":"rvg","year":1958},{"studio":"rvg","year":1958},{"studio":"rvg","year":1959},{"studio":"rvg","year":1959},{"studio":"rvg","year":1959},{"studio":"rvg","year":1959},{"studio":"rvg","year":1960},{"studio":"rvg","year":1960},{"studio":"rvg","year":1960},{"studio":"rvg","year":1960},{"studio":"rvg","year":1960},{"studio":"rvg","year":1961},{"studio":"rvg","year":1962},{"studio":"rvg","year":1962},{"studio":"rvg","year":1962},{"studio":"rvg","year":1962},{"studio":"rvg","year":1962},{"studio":"rvg","year":1962},{"studio":"rvg","year":1966}],"birthplace":{"city":"Benton Harbor","state":"MI","coordinates":{"latitude":42.1167065,"longitude":-86.45418939999999}},"reviewed":true},{"name":"Andrew Simpkins","sessions":[{"studio":"rvg","year":1958},{"studio":"rvg","year":1958},{"studio":"rvg","year":1959},{"studio":"rvg","year":1959},{"studio":"rvg","year":1959},{"studio":"rvg","year":1959},{"studio":"rvg","year":1960},{"studio":"rvg","year":1960},{"studio":"rvg","year":1960},{"studio":"rvg","year":1960},{"studio":"rvg","year":1960},{"studio":"rvg","year":1961},{"studio":"rvg","year":1962},{"studio":"rvg","year":1962},{"studio":"rvg","year":1962},{"studio":"rvg","year":1962},{"studio":"rvg","year":1962},{"studio":"rvg","year":1966}],"birthplace":{"city":"Richmond","state":"IN","coordinates":{"latitude":39.8289369,"longitude":-84.8902382}},"reviewed":true},{"name":"Bill Dowdy","sessions":[{"studio":"rvg","year":1958},{"studio":"rvg","year":1958},{"studio":"rvg","year":1959},{"studio":"rvg","year":1959},{"studio":"rvg","year":1959},{"studio":"rvg","year":1959},{"studio":"rvg","year":1960},{"studio":"rvg","year":1960},{"studio":"rvg","year":1960},{"studio":"rvg","year":1960},{"studio":"rvg","year":1960},{"studio":"rvg","year":1961},{"studio":"rvg","year":1962},{"studio":"rvg","year":1962},{"studio":"rvg","year":1962},{"studio":"rvg","year":1962},{"studio":"rvg","year":1962}],"birthplace":{"city":"Ozarks","state":"Arkansas"},"reviewed":true},{"name":"Ray Crawford","sessions":[{"studio":"rvg","year":1958}],"birthplace":{"city":"Pittsburgh","state":"PA","coordinates":{"latitude":40.44062479999999,"longitude":-79.9958864}},"reviewed":true},{"name":"Jymie Merritt","sessions":[{"studio":"rvg","year":1958},{"studio":"rvg","year":1958},{"studio":"rvg","year":1959},{"studio":"rvg","year":1959},{"studio":"rvg","year":1960},{"studio":"rvg","year":1960},{"studio":"rvg","year":1960},{"studio":"rvg","year":1960},{"studio":"rvg","year":1961},{"studio":"rvg","year":1961},{"studio":"rvg","year":1961},{"studio":"rvg","year":1961},{"studio":"rvg","year":1961},{"studio":"rvg","year":1961},{"studio":"rvg","year":1961}],"birthplace":{"city":"Philadelphia","state":"PA","coordinates":{"latitude":39.952335,"longitude":-75.16378900000001}},"reviewed":true},{"name":"Wes Landers","sessions":[{"studio":"rvg","year":1958},{"studio":"rvg","year":1958}],"reviewed":true},{"name":"Eddie Williams","sessions":[{"studio":"rvg","year":1958},{"studio":"rvg","year":1959}],"reviewed":true},{"name":"Jerry Segal","sessions":[{"studio":"rvg","year":1958}],"birthplace":{"city":"Philadelphia","state":"PA","coordinates":{"latitude":39.952335,"longitude":-75.16378900000001}},"reviewed":true},{"name":"Jimmy Wormworth","sessions":[{"studio":"rvg","year":1958}],"birthplace":{"city":"Utica","state":"NY","coordinates":{"latitude":43.100903,"longitude":-75.232664}},"reviewed":true},{"name":"Al Dreares","sessions":[{"studio":"rvg","year":1959}],"birthplace":{"city":"Key West","state":"FL","coordinates":{"latitude":24.5557025,"longitude":-81.7825914}},"reviewed":true},{"name":"Walter Davis Jr.","sessions":[{"studio":"rvg","year":1959},{"studio":"rvg","year":1959},{"studio":"rvg","year":1959},{"studio":"rvg","year":1959},{"studio":"rvg","year":1961},{"studio":"rvg","year":1962}],"birthplace":{"city":"Richmond","state":"VA","coordinates":{"latitude":37.5407246,"longitude":-77.4360481}},"reviewed":true},{"name":"Leon Eason","sessions":[{"studio":"rvg","year":1959}],"reviewed":true},{"name":"Dottie Dudley","sessions":[{"studio":"rvg","year":1959}],"reviewed":true},{"name":"Ronnie Cole","sessions":[{"studio":"rvg","year":1959},{"studio":"rvg","year":1962}],"reviewed":true},{"name":"Percy France","sessions":[{"studio":"rvg","year":1959},{"studio":"rvg","year":1962}],"reviewed":true},{"name":"Edwin Swanston","sessions":[{"studio":"rvg","year":1959},{"studio":"rvg","year":1959},{"studio":"rvg","year":1962}],"birthplace":{"city":"New York","state":"NY","coordinates":{"latitude":40.7143528,"longitude":-74.00597309999999}},"reviewed":true},{"name":"Clifton “Skeeter” Best","sessions":[{"studio":"rvg","year":1959},{"studio":"rvg","year":1959}],"birthplace":{"city":"Kinston","state":"NC","coordinates":{"latitude":35.2626635,"longitude":-77.5816353}},"reviewed":true},{"name":"Charles “Sonny” Wellesley","sessions":[{"studio":"rvg","year":1959},{"studio":"rvg","year":1959}],"reviewed":true},{"name":"Les Jenkins","sessions":[{"studio":"rvg","year":1959},{"studio":"rvg","year":1959}],"reviewed":true},{"name":"Duke Pearson","sessions":[{"studio":"rvg","year":1959},{"studio":"rvg","year":1959},{"studio":"rvg","year":1959},{"studio":"rvg","year":1959},{"studio":"rvg","year":1960},{"studio":"rvg","year":1960},{"studio":"rvg","year":1960},{"studio":"rvg","year":1960},{"studio":"rvg","year":1961},{"studio":"rvg","year":1963},{"studio":"rvg","year":1963},{"studio":"rvg","year":1963},{"studio":"rvg","year":1963},{"studio":"rvg","year":1963},{"studio":"rvg","year":1963},{"studio":"rvg","year":1964},{"studio":"rvg","year":1964},{"studio":"rvg","year":1964},{"studio":"rvg","year":1964},{"studio":"rvg","year":1964},{"studio":"rvg","year":1964},{"studio":"rvg","year":1966},{"studio":"rvg","year":1966},{"studio":"rvg","year":1966},{"studio":"rvg","year":1966},{"studio":"rvg","year":1966},{"studio":"rvg","year":1967},{"studio":"rvg","year":1967},{"studio":"rvg","year":1967},{"studio":"rvg","year":1967},{"studio":"rvg","year":1967},{"studio":"rvg","year":1967},{"studio":"rvg","year":1967},{"studio":"rvg","year":1967},{"studio":"rvg","year":1967}],"birthplace":{"city":"Atlanta","state":"GA","coordinates":{"latitude":33.7489954,"longitude":-84.3879824}},"reviewed":true},{"name":"Lex Humphries","sessions":[{"studio":"rvg","year":1959},{"studio":"rvg","year":1959},{"studio":"rvg","year":1959},{"studio":"rvg","year":1959},{"studio":"rvg","year":1960},{"studio":"rvg","year":1960},{"studio":"rvg","year":1960},{"studio":"rvg","year":1963}],"birthplace":{"city":"New York","state":"NY","coordinates":{"latitude":40.7143528,"longitude":-74.00597309999999}},"reviewed":true},{"name":"Jimmy Garrison","sessions":[{"studio":"rvg","year":1959}],"birthplace":{"city":"Miami","state":"FL","coordinates":{"latitude":25.7889689,"longitude":-80.2264393}},"reviewed":true},{"name":"Horace Parlan","sessions":[{"studio":"rvg","year":1959},{"studio":"rvg","year":1959},{"studio":"rvg","year":1960},{"studio":"rvg","year":1960},{"studio":"rvg","year":1960},{"studio":"rvg","year":1960},{"studio":"rvg","year":1960},{"studio":"rvg","year":1960},{"studio":"rvg","year":1960},{"studio":"rvg","year":1960},{"studio":"rvg","year":1960},{"studio":"rvg","year":1961},{"studio":"rvg","year":1961},{"studio":"rvg","year":1961},{"studio":"rvg","year":1961},{"studio":"rvg","year":1961},{"studio":"rvg","year":1963}],"birthplace":{"city":"Pittsburgh","state":"PA","coordinates":{"latitude":40.44062479999999,"longitude":-79.9958864}},"reviewed":true},{"name":"Laymon Jackson","sessions":[{"studio":"rvg","year":1959},{"studio":"rvg","year":1960},{"studio":"rvg","year":1961}],"reviewed":true},{"name":"Wayne Shorter","sessions":[{"studio":"rvg","year":1959},{"studio":"rvg","year":1960},{"studio":"rvg","year":1960},{"studio":"rvg","year":1960},{"studio":"rvg","year":1961},{"studio":"rvg","year":1961},{"studio":"rvg","year":1961},{"studio":"rvg","year":1961},{"studio":"rvg","year":1961},{"studio":"rvg","year":1961},{"studio":"rvg","year":1961},{"studio":"rvg","year":1961},{"studio":"rvg","year":1961},{"studio":"rvg","year":1962},{"studio":"rvg","year":1964},{"studio":"rvg","year":1964},{"studio":"rvg","year":1964},{"studio":"rvg","year":1964},{"studio":"rvg","year":1964},{"studio":"rvg","year":1964},{"studio":"rvg","year":1964},{"studio":"rvg","year":1964},{"studio":"rvg","year":1964},{"studio":"rvg","year":1964},{"studio":"rvg","year":1964},{"studio":"rvg","year":1965},{"studio":"rvg","year":1965},{"studio":"rvg","year":1965},{"studio":"rvg","year":1965},{"studio":"rvg","year":1965},{"studio":"rvg","year":1965},{"studio":"rvg","year":1966},{"studio":"rvg","year":1966},{"studio":"rvg","year":1966},{"studio":"rvg","year":1967},{"studio":"rvg","year":1967},{"studio":"rvg","year":1967},{"studio":"rvg","year":1967}],"birthplace":{"city":"Newark","state":"NJ","coordinates":{"latitude":40.735657,"longitude":-74.1723667}},"reviewed":true},{"name":"Dizzy Reece","sessions":[{"studio":"rvg","year":1959},{"studio":"rvg","year":1959},{"studio":"rvg","year":1959},{"studio":"rvg","year":1960},{"studio":"rvg","year":1960},{"studio":"rvg","year":1960},{"studio":"rvg","year":1960}],"birthplace":{"city":"Kingston","state":"Jamaica","coordinates":{"latitude":17.992731,"longitude":-76.7920089}},"reviewed":true},{"name":"Al Harewood","sessions":[{"studio":"rvg","year":1959},{"studio":"rvg","year":1960},{"studio":"rvg","year":1960},{"studio":"rvg","year":1960},{"studio":"rvg","year":1960},{"studio":"rvg","year":1960},{"studio":"rvg","year":1960},{"studio":"rvg","year":1960},{"studio":"rvg","year":1960},{"studio":"rvg","year":1960},{"studio":"rvg","year":1961},{"studio":"rvg","year":1961},{"studio":"rvg","year":1961},{"studio":"rvg","year":1961},{"studio":"rvg","year":1961},{"studio":"rvg","year":1961},{"studio":"rvg","year":1961},{"studio":"rvg","year":1961},{"studio":"rvg","year":1962},{"studio":"rvg","year":1962},{"studio":"rvg","year":1962},{"studio":"rvg","year":1963},{"studio":"rvg","year":1963},{"studio":"rvg","year":1963},{"studio":"rvg","year":1963},{"studio":"rvg","year":1963},{"studio":"rvg","year":1967}],"birthplace":{"city":"Brooklyn","state":"NY","coordinates":{"latitude":40.65,"longitude":-73.95}},"reviewed":true},{"name":"Sonny Red","sessions":[{"studio":"rvg","year":1959},{"studio":"rvg","year":1960},{"studio":"rvg","year":1960},{"studio":"rvg","year":1963},{"studio":"rvg","year":1966},{"studio":"rvg","year":1967},{"studio":"rvg","year":1967},{"studio":"rvg","year":1967},{"studio":"rvg","year":1967}],"birthplace":{"city":"Detroit","state":"MI","coordinates":{"latitude":42.331427,"longitude":-83.0457538}},"reviewed":true},{"name":"Roy Brooks","sessions":[{"studio":"rvg","year":1959},{"studio":"rvg","year":1960},{"studio":"rvg","year":1960},{"studio":"rvg","year":1961},{"studio":"rvg","year":1963},{"studio":"rvg","year":1963},{"studio":"rvg","year":1963},{"studio":"rvg","year":1963},{"studio":"rvg","year":1963},{"studio":"rvg","year":1963},{"studio":"rvg","year":1964}],"birthplace":{"city":"Detroit","state":"MI","coordinates":{"latitude":42.331427,"longitude":-83.0457538}},"reviewed":true},{"name":"Quentin Warren","sessions":[{"studio":"rvg","year":1960},{"studio":"rvg","year":1960},{"studio":"rvg","year":1960},{"studio":"rvg","year":1961},{"studio":"rvg","year":1962},{"studio":"rvg","year":1963},{"studio":"rvg","year":1963},{"studio":"rvg","year":1963}],"reviewed":true},{"name":"Jimmy Cobb","sessions":[{"studio":"rvg","year":1960}],"birthplace":{"city":"Washington","state":"D.C.","coordinates":{"latitude":38.8951118,"longitude":-77.0363658}},"reviewed":true},{"name":"Freddie Redd","sessions":[{"studio":"rvg","year":1960},{"studio":"rvg","year":1960},{"studio":"rvg","year":1961}],"birthplace":{"city":"New York","state":"NY","coordinates":{"latitude":40.7143528,"longitude":-74.00597309999999}},"reviewed":true},{"name":"Mike Mattos","sessions":[{"studio":"rvg","year":1960}],"reviewed":true},{"name":"Larry Ritchie","sessions":[{"studio":"rvg","year":1960}],"birthplace":{"city":"Brooklyn","state":"NY","coordinates":{"latitude":40.65,"longitude":-73.95}},"reviewed":true},{"name":"Stanley Turrentine","sessions":[{"studio":"rvg","year":1960},{"studio":"rvg","year":1960},{"studio":"rvg","year":1960},{"studio":"rvg","year":1960},{"studio":"rvg","year":1960},{"studio":"rvg","year":1960},{"studio":"rvg","year":1960},{"studio":"rvg","year":1960},{"studio":"rvg","year":1960},{"studio":"rvg","year":1960},{"studio":"rvg","year":1960},{"studio":"rvg","year":1961},{"studio":"rvg","year":1961},{"studio":"rvg","year":1961},{"studio":"rvg","year":1961},{"studio":"rvg","year":1962},{"studio":"rvg","year":1962},{"studio":"rvg","year":1962},{"studio":"rvg","year":1962},{"studio":"rvg","year":1963},{"studio":"rvg","year":1963},{"studio":"rvg","year":1963},{"studio":"rvg","year":1963},{"studio":"rvg","year":1963},{"studio":"rvg","year":1963},{"studio":"rvg","year":1964},{"studio":"rvg","year":1964},{"studio":"rvg","year":1964},{"studio":"rvg","year":1964},{"studio":"rvg","year":1964},{"studio":"rvg","year":1965},{"studio":"rvg","year":1965},{"studio":"rvg","year":1966},{"studio":"rvg","year":1966},{"studio":"rvg","year":1966},{"studio":"rvg","year":1966},{"studio":"rvg","year":1967},{"studio":"rvg","year":1967},{"studio":"rvg","year":1967},{"studio":"rvg","year":1967},{"studio":"rvg","year":1967}],"birthplace":{"city":"Pittsburgh","state":"PA","coordinates":{"latitude":40.44062479999999,"longitude":-79.9958864}},"reviewed":true},{"name":"Freddie Hubbard","sessions":[{"studio":"rvg","year":1960},{"studio":"rvg","year":1960},{"studio":"rvg","year":1960},{"studio":"rvg","year":1960},{"studio":"rvg","year":1960},{"studio":"rvg","year":1961},{"studio":"rvg","year":1961},{"studio":"rvg","year":1961},{"studio":"rvg","year":1961},{"studio":"rvg","year":1961},{"studio":"rvg","year":1961},{"studio":"rvg","year":1961},{"studio":"rvg","year":1962},{"studio":"rvg","year":1962},{"studio":"rvg","year":1962},{"studio":"rvg","year":1964},{"studio":"rvg","year":1964},{"studio":"rvg","year":1964},{"studio":"rvg","year":1964},{"studio":"rvg","year":1964},{"studio":"rvg","year":1964},{"studio":"rvg","year":1965},{"studio":"rvg","year":1965},{"studio":"rvg","year":1965},{"studio":"rvg","year":1965},{"studio":"rvg","year":1965},{"studio":"rvg","year":1965},{"studio":"rvg","year":1965},{"studio":"rvg","year":1965},{"studio":"rvg","year":1965},{"studio":"rvg","year":1965},{"studio":"rvg","year":1965},{"studio":"rvg","year":1965},{"studio":"rvg","year":1965},{"studio":"rvg","year":1965},{"studio":"rvg","year":1966},{"studio":"rvg","year":1966},{"studio":"rvg","year":1967},{"studio":"rvg","year":1967}],"birthplace":{"city":"Indianapolis","state":"IN","coordinates":{"latitude":39.768403,"longitude":-86.158068}},"reviewed":true},{"name":"McCoy Tyner","sessions":[{"studio":"rvg","year":1960},{"studio":"rvg","year":1960},{"studio":"rvg","year":1961},{"studio":"rvg","year":1963},{"studio":"rvg","year":1964},{"studio":"rvg","year":1964},{"studio":"rvg","year":1964},{"studio":"rvg","year":1964},{"studio":"rvg","year":1964},{"studio":"rvg","year":1964},{"studio":"rvg","year":1964},{"studio":"rvg","year":1964},{"studio":"rvg","year":1964},{"studio":"rvg","year":1965},{"studio":"rvg","year":1965},{"studio":"rvg","year":1965},{"studio":"rvg","year":1965},{"studio":"rvg","year":1966},{"studio":"rvg","year":1966},{"studio":"rvg","year":1966},{"studio":"rvg","year":1966},{"studio":"rvg","year":1966},{"studio":"rvg","year":1966},{"studio":"rvg","year":1966},{"studio":"rvg","year":1966},{"studio":"rvg","year":1966},{"studio":"rvg","year":1967},{"studio":"rvg","year":1967},{"studio":"rvg","year":1967},{"studio":"rvg","year":1967},{"studio":"rvg","year":1967},{"studio":"rvg","year":1967},{"studio":"rvg","year":1967}],"birthplace":{"city":"Philadelphia","state":"PA","coordinates":{"latitude":39.952335,"longitude":-75.16378900000001}},"reviewed":true},{"name":"Clifford Jarvis","sessions":[{"studio":"rvg","year":1960},{"studio":"rvg","year":1962},{"studio":"rvg","year":1965},{"studio":"rvg","year":1965}],"birthplace":{"city":"Boston","state":"MA","coordinates":{"latitude":42.3584308,"longitude":-71.0597732}},"reviewed":true},{"name":"Vernel Fournier","sessions":[{"studio":"rvg","year":1960}],"birthplace":{"city":"New Orleans","state":"LA","coordinates":{"latitude":29.95106579999999,"longitude":-90.0715323}},"reviewed":true},{"name":"Reggie Workman","sessions":[{"studio":"rvg","year":1960},{"studio":"rvg","year":1960},{"studio":"rvg","year":1962},{"studio":"rvg","year":1962},{"studio":"rvg","year":1962},{"studio":"rvg","year":1964},{"studio":"rvg","year":1964},{"studio":"rvg","year":1964},{"studio":"rvg","year":1964},{"studio":"rvg","year":1964},{"studio":"rvg","year":1964},{"studio":"rvg","year":1964},{"studio":"rvg","year":1964},{"studio":"rvg","year":1965},{"studio":"rvg","year":1965},{"studio":"rvg","year":1966},{"studio":"rvg","year":1966},{"studio":"rvg","year":1966},{"studio":"rvg","year":1967}],"birthplace":{"city":"Philadelphia","state":"PA","coordinates":{"latitude":39.952335,"longitude":-75.16378900000001}},"reviewed":true},{"name":"Tommy Turrentine","sessions":[{"studio":"rvg","year":1960},{"studio":"rvg","year":1960},{"studio":"rvg","year":1961},{"studio":"rvg","year":1961},{"studio":"rvg","year":1961},{"studio":"rvg","year":1961},{"studio":"rvg","year":1962},{"studio":"rvg","year":1962},{"studio":"rvg","year":1962},{"studio":"rvg","year":1962},{"studio":"rvg","year":1963},{"studio":"rvg","year":1967}],"birthplace":{"city":"Pittsburgh","state":"PA","coordinates":{"latitude":40.44062479999999,"longitude":-79.9958864}},"reviewed":true},{"name":"Dave Burns","sessions":[{"studio":"rvg","year":1960},{"studio":"rvg","year":1961},{"studio":"rvg","year":1961},{"studio":"rvg","year":1962}],"birthplace":{"city":"Perth Amboy","state":"NJ","coordinates":{"latitude":40.5067723,"longitude":-74.2654234}},"reviewed":true},{"name":"Sir Charles Thompson","sessions":[{"studio":"rvg","year":1960},{"studio":"rvg","year":1962},{"studio":"rvg","year":1962},{"studio":"rvg","year":1962}],"birthplace":{"city":"Springfield","state":"OH","coordinates":{"latitude":39.9242266,"longitude":-83.8088171}},"reviewed":true},{"name":"Grant Green","sessions":[{"studio":"rvg","year":1960},{"studio":"rvg","year":1961},{"studio":"rvg","year":1961},{"studio":"rvg","year":1961},{"studio":"rvg","year":1961},{"studio":"rvg","year":1961},{"studio":"rvg","year":1961},{"studio":"rvg","year":1961},{"studio":"rvg","year":1961},{"studio":"rvg","year":1961},{"studio":"rvg","year":1961},{"studio":"rvg","year":1961},{"studio":"rvg","year":1961},{"studio":"rvg","year":1961},{"studio":"rvg","year":1961},{"studio":"rvg","year":1961},{"studio":"rvg","year":1961},{"studio":"rvg","year":1962},{"studio":"rvg","year":1962},{"studio":"rvg","year":1962},{"studio":"rvg","year":1962},{"studio":"rvg","year":1962},{"studio":"rvg","year":1962},{"studio":"rvg","year":1962},{"studio":"rvg","year":1962},{"studio":"rvg","year":1962},{"studio":"rvg","year":1962},{"studio":"rvg","year":1962},{"studio":"rvg","year":1962},{"studio":"rvg","year":1962},{"studio":"rvg","year":1962},{"studio":"rvg","year":1962},{"studio":"rvg","year":1962},{"studio":"rvg","year":1962},{"studio":"rvg","year":1962},{"studio":"rvg","year":1963},{"studio":"rvg","year":1963},{"studio":"rvg","year":1963},{"studio":"rvg","year":1963},{"studio":"rvg","year":1963},{"studio":"rvg","year":1963},{"studio":"rvg","year":1963},{"studio":"rvg","year":1963},{"studio":"rvg","year":1963},{"studio":"rvg","year":1963},{"studio":"rvg","year":1963},{"studio":"rvg","year":1963},{"studio":"rvg","year":1963},{"studio":"rvg","year":1963},{"studio":"rvg","year":1963},{"studio":"rvg","year":1963},{"studio":"rvg","year":1963},{"studio":"rvg","year":1963},{"studio":"rvg","year":1963},{"studio":"rvg","year":1963},{"studio":"rvg","year":1964},{"studio":"rvg","year":1964},{"studio":"rvg","year":1964},{"studio":"rvg","year":1964},{"studio":"rvg","year":1964},{"studio":"rvg","year":1964},{"studio":"rvg","year":1964},{"studio":"rvg","year":1964},{"studio":"rvg","year":1964},{"studio":"rvg","year":1964},{"studio":"rvg","year":1964},{"studio":"rvg","year":1964},{"studio":"rvg","year":1965},{"studio":"rvg","year":1965},{"studio":"rvg","year":1965},{"studio":"rvg","year":1966},{"studio":"rvg","year":1966}],"birthplace":{"city":"St. Louis","state":"MO","coordinates":{"latitude":38.6270025,"longitude":-90.19940419999999}},"reviewed":true},{"name":"Benny Bailey","sessions":[{"studio":"rvg","year":1961}],"birthplace":{"city":"Cleveland","state":"OH","coordinates":{"latitude":41.4994954,"longitude":-81.6954088}},"reviewed":true},{"name":"Sir John Godfrey","sessions":[{"studio":"rvg","year":1961}],"reviewed":true},{"name":"“Baby Face” Willette","sessions":[{"studio":"rvg","year":1961},{"studio":"rvg","year":1961},{"studio":"rvg","year":1961},{"studio":"rvg","year":1961}],"birthplace":{"city":"Little Rock","state":"AR","coordinates":{"latitude":34.7464809,"longitude":-92.28959479999999}},"reviewed":true},{"name":"Ben Dixon","sessions":[{"studio":"rvg","year":1961},{"studio":"rvg","year":1961},{"studio":"rvg","year":1961},{"studio":"rvg","year":1961},{"studio":"rvg","year":1962},{"studio":"rvg","year":1962},{"studio":"rvg","year":1963},{"studio":"rvg","year":1963},{"studio":"rvg","year":1963},{"studio":"rvg","year":1963},{"studio":"rvg","year":1963},{"studio":"rvg","year":1963},{"studio":"rvg","year":1963},{"studio":"rvg","year":1963},{"studio":"rvg","year":1963},{"studio":"rvg","year":1963},{"studio":"rvg","year":1963},{"studio":"rvg","year":1964},{"studio":"rvg","year":1964},{"studio":"rvg","year":1965}],"birthplace":{"city":"Gaffney","state":"SC","coordinates":{"latitude":35.0717945,"longitude":-81.64981949999999}},"reviewed":true},{"name":"Fred Jackson","sessions":[{"studio":"rvg","year":1961},{"studio":"rvg","year":1962},{"studio":"rvg","year":1962},{"studio":"rvg","year":1962},{"studio":"rvg","year":1963},{"studio":"rvg","year":1964}],"birthplace":{"city":"Atlanta","state":"GA","coordinates":{"latitude":33.7489954,"longitude":-84.3879824}},"reviewed":true},{"name":"Johnny Coles","sessions":[{"studio":"rvg","year":1961},{"studio":"rvg","year":1963},{"studio":"rvg","year":1963},{"studio":"rvg","year":1963},{"studio":"rvg","year":1963}],"birthplace":{"city":"Trenton","state":"NJ","coordinates":{"latitude":40.2170534,"longitude":-74.7429384}},"reviewed":true},{"name":"Charles Davis","sessions":[{"studio":"rvg","year":1961},{"studio":"rvg","year":1963},{"studio":"rvg","year":1963},{"studio":"rvg","year":1963}],"birthplace":{"city":"Goodman","state":"MS","coordinates":{"latitude":32.9701306,"longitude":-89.9123058}},"reviewed":true},{"name":"Ben Tucker","sessions":[{"studio":"rvg","year":1961},{"studio":"rvg","year":1961},{"studio":"rvg","year":1961},{"studio":"rvg","year":1964},{"studio":"rvg","year":1965}],"reviewed":true},{"name":"Julian Priester","sessions":[{"studio":"rvg","year":1961},{"studio":"rvg","year":1966},{"studio":"rvg","year":1966},{"studio":"rvg","year":1966},{"studio":"rvg","year":1967},{"studio":"rvg","year":1967},{"studio":"rvg","year":1967},{"studio":"rvg","year":1967},{"studio":"rvg","year":1967},{"studio":"rvg","year":1967},{"studio":"rvg","year":1967}],"birthplace":{"city":"Chicago","state":"IL","coordinates":{"latitude":41.8781136,"longitude":-87.6297982}},"reviewed":true},{"name":"Cedar Walton","sessions":[{"studio":"rvg","year":1961},{"studio":"rvg","year":1961},{"studio":"rvg","year":1961},{"studio":"rvg","year":1961},{"studio":"rvg","year":1962},{"studio":"rvg","year":1964},{"studio":"rvg","year":1964},{"studio":"rvg","year":1964},{"studio":"rvg","year":1964},{"studio":"rvg","year":1964},{"studio":"rvg","year":1966},{"studio":"rvg","year":1966},{"studio":"rvg","year":1966},{"studio":"rvg","year":1966},{"studio":"rvg","year":1967},{"studio":"rvg","year":1967},{"studio":"rvg","year":1967},{"studio":"rvg","year":1967},{"studio":"rvg","year":1967},{"studio":"rvg","year":1967},{"studio":"rvg","year":1967}],"birthplace":{"city":"Dallas","state":"TX","coordinates":{"latitude":32.7801399,"longitude":-96.80045109999999}},"reviewed":true},{"name":"Larry Ridley","sessions":[{"studio":"rvg","year":1961},{"studio":"rvg","year":1963},{"studio":"rvg","year":1965},{"studio":"rvg","year":1965},{"studio":"rvg","year":1965},{"studio":"rvg","year":1965},{"studio":"rvg","year":1965},{"studio":"rvg","year":1965},{"studio":"rvg","year":1966},{"studio":"rvg","year":1966}],"birthplace":{"city":"Indianapolis","state":"IN","coordinates":{"latitude":39.768403,"longitude":-86.158068}},"reviewed":true},{"name":"Herbie Hancock","sessions":[{"studio":"rvg","year":1961},{"studio":"rvg","year":1961},{"studio":"rvg","year":1961},{"studio":"rvg","year":1962},{"studio":"rvg","year":1962},{"studio":"rvg","year":1962},{"studio":"rvg","year":1962},{"studio":"rvg","year":1962},{"studio":"rvg","year":1963},{"studio":"rvg","year":1963},{"studio":"rvg","year":1963},{"studio":"rvg","year":1963},{"studio":"rvg","year":1963},{"studio":"rvg","year":1963},{"studio":"rvg","year":1963},{"studio":"rvg","year":1963},{"studio":"rvg","year":1964},{"studio":"rvg","year":1964},{"studio":"rvg","year":1964},{"studio":"rvg","year":1964},{"studio":"rvg","year":1964},{"studio":"rvg","year":1964},{"studio":"rvg","year":1964},{"studio":"rvg","year":1964},{"studio":"rvg","year":1964},{"studio":"rvg","year":1964},{"studio":"rvg","year":1964},{"studio":"rvg","year":1965},{"studio":"rvg","year":1965},{"studio":"rvg","year":1965},{"studio":"rvg","year":1965},{"studio":"rvg","year":1965},{"studio":"rvg","year":1965},{"studio":"rvg","year":1965},{"studio":"rvg","year":1965},{"studio":"rvg","year":1965},{"studio":"rvg","year":1965},{"studio":"rvg","year":1966},{"studio":"rvg","year":1966},{"studio":"rvg","year":1966},{"studio":"rvg","year":1966},{"studio":"rvg","year":1966},{"studio":"rvg","year":1967},{"studio":"rvg","year":1967},{"studio":"rvg","year":1967},{"studio":"rvg","year":1967}],"birthplace":{"city":"Chicago","state":"IL","coordinates":{"latitude":41.8781136,"longitude":-87.6297982}},"reviewed":true},{"name":"Teddy Robinson","sessions":[{"studio":"rvg","year":1961},{"studio":"rvg","year":1967},{"studio":"rvg","year":1967},{"studio":"rvg","year":1967}],"reviewed":true},{"name":"Alec Dorsey","sessions":[{"studio":"rvg","year":1961}],"reviewed":true},{"name":"Dexter Gordon","sessions":[{"studio":"rvg","year":1961},{"studio":"rvg","year":1961},{"studio":"rvg","year":1962},{"studio":"rvg","year":1962},{"studio":"rvg","year":1962},{"studio":"rvg","year":1962},{"studio":"rvg","year":1962},{"studio":"rvg","year":1962},{"studio":"rvg","year":1965},{"studio":"rvg","year":1965},{"studio":"rvg","year":1965}],"birthplace":{"city":"Los Angeles","state":"CA","coordinates":{"latitude":34.0522342,"longitude":-118.2436849}},"reviewed":true},{"name":"Shirley Scott","sessions":[{"studio":"rvg","year":1961},{"studio":"rvg","year":1963},{"studio":"rvg","year":1963},{"studio":"rvg","year":1963},{"studio":"rvg","year":1963},{"studio":"rvg","year":1964}],"birthplace":{"city":"Philadelphia","state":"PA","coordinates":{"latitude":39.952335,"longitude":-75.16378900000001}},"reviewed":true},{"name":"Booker Ervin","sessions":[{"studio":"rvg","year":1961},{"studio":"rvg","year":1963}],"birthplace":{"city":"Denison","state":"TX","coordinates":{"latitude":33.7556593,"longitude":-96.53665799999999}},"reviewed":true},{"name":"Yusef Lateef","sessions":[{"studio":"rvg","year":1961},{"studio":"rvg","year":1962}],"birthplace":{"city":"Chattanooga","state":"TN","coordinates":{"latitude":35.0456297,"longitude":-85.3096801}},"reviewed":true},{"name":"Jack McDuff","sessions":[{"studio":"rvg","year":1961},{"studio":"rvg","year":1961}],"birthplace":{"city":"Champaign","state":"IL","coordinates":{"latitude":40.1164204,"longitude":-88.2433829}},"reviewed":true},{"name":"Bernard McKinney","sessions":[{"studio":"rvg","year":1961}],"reviewed":true},{"name":"Art Davis","sessions":[{"studio":"rvg","year":1961}],"birthplace":{"city":"Harrisburg","state":"PA","coordinates":{"latitude":40.2737002,"longitude":-76.8844179}},"reviewed":true},{"name":"John Burks","sessions":[{"studio":"rvg","year":1961}],"reviewed":true},{"name":"Bill Swindell","sessions":[{"studio":"rvg","year":1961},{"studio":"rvg","year":1961},{"studio":"rvg","year":1961}],"reviewed":true},{"name":"Leo Parker","sessions":[{"studio":"rvg","year":1961},{"studio":"rvg","year":1961},{"studio":"rvg","year":1961}],"birthplace":{"city":"Washington","state":"D.C.","coordinates":{"latitude":38.8951118,"longitude":-77.0363658}},"reviewed":true},{"name":"Yusef Salim","sessions":[{"studio":"rvg","year":1961}],"birthplace":{"city":"Baltimore","state":"MD","coordinates":{"latitude":39.2903848,"longitude":-76.6121893}},"reviewed":true},{"name":"Stan Conover","sessions":[{"studio":"rvg","year":1961},{"studio":"rvg","yaer":1961}],"reviewed":true},{"name":"Purnell Rice","sessions":[{"studio":"rvg","year":1961},{"studio":"rvg","year":1961}],"birthplace":{"city":"Baltimore","state":"MD","coordinates":{"latitude":39.2903848,"longitude":-76.6121893}},"reviewed":true},{"name":"Butch Warren","sessions":[{"studio":"rvg","year":1961},{"studio":"rvg","year":1961},{"studio":"rvg","year":1961},{"studio":"rvg","year":1961},{"studio":"rvg","year":1961},{"studio":"rvg","year":1961},{"studio":"rvg","year":1961},{"studio":"rvg","year":1962},{"studio":"rvg","year":1962},{"studio":"rvg","year":1962},{"studio":"rvg","year":1962},{"studio":"rvg","year":1962},{"studio":"rvg","year":1962},{"studio":"rvg","year":1962},{"studio":"rvg","year":1962},{"studio":"rvg","year":1962},{"studio":"rvg","year":1962},{"studio":"rvg","year":1962},{"studio":"rvg","year":1963},{"studio":"rvg","year":1963},{"studio":"rvg","year":1963},{"studio":"rvg","year":1963},{"studio":"rvg","year":1963},{"studio":"rvg","year":1963},{"studio":"rvg","year":1964}],"birthplace":{"city":"Washington","state":"D.C.","coordinates":{"latitude":38.8951118,"longitude":-77.0363658}},"reviewed":true},{"name":"Billy Higgins","sessions":[{"studio":"rvg","year":1961},{"studio":"rvg","year":1961},{"studio":"rvg","year":1961},{"studio":"rvg","year":1961},{"studio":"rvg","year":1961},{"studio":"rvg","year":1961},{"studio":"rvg","year":1961},{"studio":"rvg","year":1962},{"studio":"rvg","year":1962},{"studio":"rvg","year":1962},{"studio":"rvg","year":1962},{"studio":"rvg","year":1962},{"studio":"rvg","year":1962},{"studio":"rvg","year":1962},{"studio":"rvg","year":1962},{"studio":"rvg","year":1962},{"studio":"rvg","year":1963},{"studio":"rvg","year":1963},{"studio":"rvg","year":1964},{"studio":"rvg","year":1964},{"studio":"rvg","year":1964},{"studio":"rvg","year":1964},{"studio":"rvg","year":1965},{"studio":"rvg","year":1965},{"studio":"rvg","year":1965},{"studio":"rvg","year":1965},{"studio":"rvg","year":1965},{"studio":"rvg","year":1965},{"studio":"rvg","year":1965},{"studio":"rvg","year":1965},{"studio":"rvg","year":1965},{"studio":"rvg","year":1965},{"studio":"rvg","year":1965},{"studio":"rvg","year":1965},{"studio":"rvg","year":1965},{"studio":"rvg","year":1965},{"studio":"rvg","year":1965},{"studio":"rvg","year":1966},{"studio":"rvg","year":1966},{"studio":"rvg","year":1966},{"studio":"rvg","year":1966},{"studio":"rvg","year":1966},{"studio":"rvg","year":1966},{"studio":"rvg","year":1967},{"studio":"rvg","year":1967},{"studio":"rvg","year":1967},{"studio":"rvg","year":1967},{"studio":"rvg","year":1967},{"studio":"rvg","year":1967},{"studio":"rvg","year":1967},{"studio":"rvg","year":1967},{"studio":"rvg","year":1967},{"studio":"rvg","year":1967},{"studio":"rvg","year":1967},{"studio":"rvg","year":1967}],"birthplace":{"city":"Los Angeles","state":"CA","coordinates":{"latitude":34.0522342,"longitude":-118.2436849}},"reviewed":true},{"name":"Joe Dukes","sessions":[{"studio":"rvg","year":1961}],"birthplace":{"city":"Memphis","state":"TN","coordinates":{"latitude":35.1495343,"longitude":-90.0489801}},"reviewed":true},{"name":"John Acea","sessions":[{"studio":"rvg","year":1961},{"studio":"rvg","year":1961},{"studio":"rvg","year":1962},{"studio":"rvg","year":1962}],"birthplace":{"city":"Philadelphia","state":"PA","coordinates":{"latitude":39.952335,"longitude":-75.16378900000001}},"reviewed":true},{"name":"Wilbert Hogan","sessions":[{"studio":"rvg","year":1961},{"studio":"rvg","year":1962},{"studio":"rvg","year":1962},{"studio":"rvg","year":1962},{"studio":"rvg","year":1962},{"studio":"rvg","year":1962},{"studio":"rvg","year":1962},{"studio":"rvg","year":1962}],"birthplace":{"city":"Galveston","state":"TX","coordinates":{"latitude":29.3013479,"longitude":-94.7976958}},"reviewed":true},{"name":"Freddie Roach","sessions":[{"studio":"rvg","year":1961},{"studio":"rvg","year":1961},{"studio":"rvg","year":1962},{"studio":"rvg","year":1962},{"studio":"rvg","year":1962},{"studio":"rvg","year":1962},{"studio":"rvg","year":1963},{"studio":"rvg","year":1963},{"studio":"rvg","year":1963},{"studio":"rvg","year":1964},{"studio":"rvg","year":1964},{"studio":"rvg","year":1964},{"studio":"rvg","year":1964},{"studio":"rvg","year":1965}],"birthplace":{"city":"Bronx","state":"NY","coordinates":{"latitude":40.85,"longitude":-73.86666699999999}},"reviewed":true},{"name":"Sam Rivers","sessions":[{"studio":"rvg","year":1961},{"studio":"rvg","year":1963},{"studio":"rvg","year":1964},{"studio":"rvg","year":1964},{"studio":"rvg","year":1964},{"studio":"rvg","year":1965},{"studio":"rvg","year":1965},{"studio":"rvg","year":1965},{"studio":"rvg","year":1966},{"studio":"rvg","year":1966},{"studio":"rvg","year":1967},{"studio":"rvg","year":1967},{"studio":"rvg","year":1967}],"birthplace":{"city":"Enid","state":"OK","coordinates":{"latitude":36.3955891,"longitude":-97.8783911}},"reviewed":true},{"name":"Les McCann","sessions":[{"studio":"rvg","year":1962}],"birthplace":{"city":"Lexington","state":"KY","coordinates":{"latitude":38.0405837,"longitude":-84.5037164}},"reviewed":true},{"name":"Herbie Lewis","sessions":[{"studio":"rvg","year":1962},{"studio":"rvg","year":1962},{"studio":"rvg","year":1962},{"studio":"rvg","year":1962},{"studio":"rvg","year":1965},{"studio":"rvg","year":1966},{"studio":"rvg","year":1966},{"studio":"rvg","year":1967},{"studio":"rvg","year":1967}],"birthplace":{"city":"Pasadena","state":"CA","coordinates":{"latitude":34.1477849,"longitude":-118.1445155}},"reviewed":true},{"name":"Otis Finch","sessions":[{"studio":"rvg","year":1962},{"studio":"rvg","year":1964},{"studio":"rvg","year":1964},{"studio":"rvg","year":1964},{"studio":"rvg","year":1965}],"birthplace":{"city":"Detroit","state":"MI","coordinates":{"latitude":42.331427,"longitude":-83.0457538}},"reviewed":true},{"name":"Montego Joe (Roger Sanders)","sessions":[{"studio":"rvg","year":1962},{"studio":"rvg","year":1963},{"studio":"rvg","year":1964}],"birthplace":{"city":"Montego Bay","state":"Jamaica","coordinates":{"latitude":18.4666667,"longitude":-77.9166667}},"reviewed":true},{"name":"James Ola Folami","sessions":[{"studio":"rvg","year":1962}],"reviewed":true},{"name":"Chief Bay (Bey)","sessions":[{"studio":"rvg","year":1962},{"studio":"rvg","year":1963},{"studio":"rvg","year":1964}],"birthplace":{"city":"Yemassee","state":"SC","coordinates":{"latitude":32.6901781,"longitude":-80.85066259999999}},"reviewed":true},{"name":"Robert Crowder","sessions":[{"studio":"rvg","year":1962},{"studio":"rvg","year":1963}],"birthplace":{"city":"Philadelphia","state":"PA","coordinates":{"latitude":39.952335,"longitude":-75.16378900000001}},"reviewed":true},{"name":"Garvin Masseaux","sessions":[{"studio":"rvg","year":1962},{"studio":"rvg","year":1962},{"studio":"rvg","year":1962},{"studio":"rvg","year":1962},{"studio":"rvg","year":1962},{"studio":"rvg","year":1962},{"studio":"rvg","year":1963}],"birthplace":{"city":"Philadelphia","state":"PA","coordinates":{"latitude":39.952335,"longitude":-75.16378900000001}},"reviewed":true},{"name":"Solomon Ilori","sessions":[{"studio":"rvg","year":1962},{"studio":"rvg","year":1963},{"studio":"rvg","year":1964}],"birthplace":{"city":"Lagos","state":"Nigeria","coordinates":{"latitude":6.441158,"longitude":3.417977}},"reviewed":true},{"name":"Earl Van Dyke","sessions":[{"studio":"rvg","year":1962},{"studio":"rvg","year":1962},{"studio":"rvg","year":1962},{"studio":"rvg","year":1962}],"birthplace":{"city":"Detroit","state":"MI","coordinates":{"latitude":42.331427,"longitude":-83.0457538}},"reviewed":true},{"name":"Willie Jones","sessions":[{"studio":"rvg","year":1962},{"studio":"rvg","year":1962},{"studio":"rvg","year":1962},{"studio":"rvg","year":1962}],"birthplace":{"city":"New York","state":"NY","coordinates":{"latitude":40.7143528,"longitude":-74.00597309999999}},"reviewed":true},{"name":"Dodo Greene","sessions":[{"studio":"rvg","year":1962},{"studio":"rvg","year":1962},{"studio":"rvg","year":1962},{"studio":"rvg","year":1962}],"birthplace":{"city":"Buffalo","state":"NY","coordinates":{"latitude":42.88644679999999,"longitude":-78.8783689}},"reviewed":true},{"name":"Wendell Marshall","sessions":[{"studio":"rvg","year":1962},{"studio":"rvg","year":1962},{"studio":"rvg","year":1962},{"studio":"rvg","year":1962},{"studio":"rvg","year":1962}],"birthplace":{"city":"St. Louis","state":"MO","coordinates":{"latitude":38.6270025,"longitude":-90.19940419999999}},"reviewed":true},{"name":"Willie Bobo","sessions":[{"studio":"rvg","year":1962},{"studio":"rvg","year":1962},{"studio":"rvg","year":1962},{"studio":"rvg","year":1962},{"studio":"rvg","year":1962},{"studio":"rvg","year":1962},{"studio":"rvg","year":1962},{"studio":"rvg","year":1963}],"birthplace":{"city":"New York,NY","state":null,"coordinates":{"latitude":40.7143528,"longitude":-74.00597309999999}},"reviewed":true},{"name":"Don Wilkerson","sessions":[{"studio":"rvg","year":1962},{"studio":"rvg","year":1962},{"studio":"rvg","year":1963}],"birthplace":{"city":"Moreauville","state":"LA","coordinates":{"latitude":31.0346323,"longitude":-91.9756768}},"reviewed":true},{"name":"Lloyd Trotman","sessions":[{"studio":"rvg","year":1962}],"birthplace":{"city":"Boston","state":"MA","coordinates":{"latitude":42.3584308,"longitude":-71.0597732}},"reviewed":true},{"name":"“Big” John Patton","sessions":[{"studio":"rvg","year":1962},{"studio":"rvg","year":1962},{"studio":"rvg","year":1963},{"studio":"rvg","year":1963},{"studio":"rvg","year":1963},{"studio":"rvg","year":1963},{"studio":"rvg","year":1963},{"studio":"rvg","year":1963},{"studio":"rvg","year":1963},{"studio":"rvg","year":1963},{"studio":"rvg","year":1963},{"studio":"rvg","year":1963},{"studio":"rvg","year":1963},{"studio":"rvg","year":1964},{"studio":"rvg","year":1964},{"studio":"rvg","year":1965},{"studio":"rvg","year":1965},{"studio":"rvg","year":1966}],"birthplace":{"city":"Kansas City","state":"MO","coordinates":{"latitude":39.0997265,"longitude":-94.5785667}},"reviewed":true},{"name":"Sonny Stitt","sessions":[{"studio":"rvg","year":1962}],"birthplace":{"city":"Boston","state":"MA","coordinates":{"latitude":42.3584308,"longitude":-71.0597732}},"reviewed":true},{"name":"Don Patterson","sessions":[{"studio":"rvg","year":1962}],"birthplace":{"city":"Columbus","state":"OH","coordinates":{"latitude":39.9611755,"longitude":-82.99879419999999}},"reviewed":true},{"name":"Paul Weedon","sessions":[{"studio":"rvg","year":1962}],"reviewed":true},{"name":"Billy James","sessions":[{"studio":"rvg","year":1962}],"birthplace":{"city":"Pittsburgh","state":"PA","coordinates":{"latitude":40.44062479999999,"longitude":-79.9958864}},"reviewed":true},{"name":"Jual Curtis","sessions":[{"studio":"rvg","year":1962},{"studio":"rvg","year":1962},{"studio":"rvg","year":1962}],"reviewed":true},{"name":"Ron Carter","sessions":[{"studio":"rvg","year":1962},{"studio":"rvg","year":1964},{"studio":"rvg","year":1964},{"studio":"rvg","year":1964},{"studio":"rvg","year":1964},{"studio":"rvg","year":1964},{"studio":"rvg","year":1965},{"studio":"rvg","year":1965},{"studio":"rvg","year":1965},{"studio":"rvg","year":1965},{"studio":"rvg","year":1965},{"studio":"rvg","year":1966},{"studio":"rvg","year":1966},{"studio":"rvg","year":1967},{"studio":"rvg","year":1967},{"studio":"rvg","year":1967},{"studio":"rvg","year":1967},{"studio":"rvg","year":1967},{"studio":"rvg","year":1967},{"studio":"rvg","year":1967},{"studio":"rvg","year":1967},{"studio":"rvg","year":1967},{"studio":"rvg","year":1967}],"birthplace":{"city":"Ferndale","state":"MI","coordinates":{"latitude":42.4605917,"longitude":-83.1346478}},"reviewed":true},{"name":"John Harris Jr.","sessions":[{"studio":"rvg","year":1962},{"studio":"rvg","year":1962}],"reviewed":true},{"name":"Roger Humphries","sessions":[{"studio":"rvg","year":1962},{"studio":"rvg","year":1964},{"studio":"rvg","year":1965},{"studio":"rvg","year":1965},{"studio":"rvg","year":1966},{"studio":"rvg","year":1966}],"birthplace":{"city":"Pittsburgh","state":"PA","coordinates":{"latitude":40.44062479999999,"longitude":-79.9958864}},"reviewed":true},{"name":"Clarence Johnston","sessions":[{"studio":"rvg","year":1962},{"studio":"rvg","year":1963},{"studio":"rvg","year":1963},{"studio":"rvg","year":1963},{"studio":"rvg","year":1963},{"studio":"rvg","year":1963},{"studio":"rvg","year":1964},{"studio":"rvg","year":1964},{"studio":"rvg","year":1964},{"studio":"rvg","year":1964},{"studio":"rvg","year":1965}],"birthplace":{"city":"Boston","state":"MA","coordinates":{"latitude":42.3584308,"longitude":-71.0597732}},"reviewed":true},{"name":"Barry Galbraith","sessions":[{"studio":"rvg","year":1962},{"studio":"rvg","year":1962}],"birthplace":{"city":"Pittsburgh","state":"PA","coordinates":{"latitude":40.44062479999999,"longitude":-79.9958864}},"reviewed":true},{"name":"Steve Swallow","sessions":[{"studio":"rvg","year":1962},{"studio":"rvg","year":1962},{"studio":"rvg","year":1965}],"birthplace":{"city":"Fair Lawn","state":"NJ","coordinates":{"latitude":40.9403762,"longitude":-74.1318096}},"reviewed":true},{"name":"Denzil Best","sessions":[{"studio":"rvg","year":1962},{"studio":"rvg","year":1962}],"birthplace":{"city":"New York","state":"NY","coordinates":{"latitude":40.7143528,"longitude":-74.00597309999999}},"reviewed":true},{"name":"Sheila Jordan","sessions":[{"studio":"rvg","year":1962},{"studio":"rvg","year":1962}],"birthplace":{"city":"Detroit","state":"MI","coordinates":{"latitude":42.331427,"longitude":-83.0457538}},"reviewed":true},{"name":"Eddie Chamblee","sessions":[{"studio":"rvg","year":1962}],"birthplace":{"city":"Atlanta","state":"GA","coordinates":{"latitude":33.7489954,"longitude":-84.3879824}},"reviewed":true},{"name":"Dionne Warwick","sessions":[{"studio":"rvg","year":1962}],"birthplace":{"city":"East Orange","state":"NJ","coordinates":{"latitude":40.767323,"longitude":-74.2048677}},"reviewed":true},{"name":"James Spaulding","sessions":[{"studio":"rvg","year":1962},{"studio":"rvg","year":1964},{"studio":"rvg","year":1964},{"studio":"rvg","year":1964},{"studio":"rvg","year":1964},{"studio":"rvg","year":1965},{"studio":"rvg","year":1965},{"studio":"rvg","year":1965},{"studio":"rvg","year":1965},{"studio":"rvg","year":1965},{"studio":"rvg","year":1966},{"studio":"rvg","year":1966},{"studio":"rvg","year":1966},{"studio":"rvg","year":1966},{"studio":"rvg","year":1966},{"studio":"rvg","year":1966},{"studio":"rvg","year":1967},{"studio":"rvg","year":1967},{"studio":"rvg","year":1967},{"studio":"rvg","year":1967},{"studio":"rvg","year":1967},{"studio":"rvg","year":1967},{"studio":"rvg","year":1967},{"studio":"rvg","year":1967}],"birthplace":{"city":"Indianapolis","state":"IN","coordinates":{"latitude":39.768403,"longitude":-86.158068}},"reviewed":true},{"name":"Chauncey “Lord” Westbrook","sessions":[{"studio":"rvg","year":1962},{"studio":"rvg","year":1962}],"birthplace":{"city":"Jacksonville","state":"FL","coordinates":{"latitude":30.3321838,"longitude":-81.65565099999999}},"reviewed":true},{"name":"Edwyn Payne","sessions":[{"studio":"rvg","year":1962}],"reviewed":true},{"name":"Larry Gales","sessions":[{"studio":"rvg","year":1962}],"reviewed":true},{"name":"Major Holley Jr.","sessions":[{"studio":"rvg","year":1963},{"studio":"rvg","year":1963}],"birthplace":{"city":"Detroit","state":"MI","coordinates":{"latitude":42.331427,"longitude":-83.0457538}},"reviewed":true},{"name":"Bill English","sessions":[{"studio":"rvg","year":1963},{"studio":"rvg","year":1964}],"reviewed":true},{"name":"Donald Best","sessions":[{"studio":"rvg","year":1963}],"reviewed":true},{"name":"Coleridge Perkinson","sessions":[{"studio":"rvg","year":1963},{"studio":"rvg","year":1963},{"studio":"rvg","year":1964},{"studio":"rvg","year":1964},{"studio":"rvg","year":1964}],"birthplace":{"city":"Winston-Salemn","state":"NC","coordinates":{"latitude":36.09985959999999,"longitude":-80.244216}},"reviewed":true},{"name":"Tony Williams","sessions":[{"studio":"rvg","year":1963},{"studio":"rvg","year":1963},{"studio":"rvg","year":1963},{"studio":"rvg","year":1963},{"studio":"rvg","year":1963},{"studio":"rvg","year":1964},{"studio":"rvg","year":1964},{"studio":"rvg","year":1964},{"studio":"rvg","year":1964},{"studio":"rvg","year":1964},{"studio":"rvg","year":1964},{"studio":"rvg","year":1964},{"studio":"rvg","year":1965},{"studio":"rvg","year":1965},{"studio":"rvg","year":1965}],"reviewed":true},{"name":"Conrad Lester","sessions":[{"studio":"rvg","year":1963},{"studio":"rvg","year":1964}],"birthplace":{"city":"Roselle","state":"NJ","coordinates":{"latitude":40.6527292,"longitude":-74.2592769}},"reviewed":true},{"name":"Eddie Wright","sessions":[{"studio":"rvg","year":1963},{"studio":"rvg","year":1963},{"studio":"rvg","year":1963},{"studio":"rvg","year":1964},{"studio":"rvg","year":1964},{"studio":"rvg","year":1965},{"studio":"rvg","year":1967}],"reviewed":true},{"name":"Grachan Moncur III","sessions":[{"studio":"rvg","year":1963},{"studio":"rvg","year":1963},{"studio":"rvg","year":1963},{"studio":"rvg","year":1963},{"studio":"rvg","year":1963},{"studio":"rvg","year":1963},{"studio":"rvg","year":1964},{"studio":"rvg","year":1965},{"studio":"rvg","year":1967},{"studio":"rvg","year":1967}],"birthplace":{"city":"New York","state":"NY","coordinates":{"latitude":40.7143528,"longitude":-74.00597309999999}},"reviewed":true},{"name":"Chuck Israels","sessions":[{"studio":"rvg","year":1963}],"birthplace":{"city":"New York","state":"NY","coordinates":{"latitude":40.7143528,"longitude":-74.00597309999999}},"reviewed":true},{"name":"Seldon Powell","sessions":[{"studio":"rvg","year":1963},{"studio":"rvg","year":1963}],"birthplace":{"city":"Lawrenceville","state":"VA","coordinates":{"latitude":36.7576469,"longitude":-77.84693740000002}},"reviewed":true},{"name":"Osie Johnson","sessions":[{"studio":"rvg","year":1963},{"studio":"rvg","year":1963}],"birthplace":{"city":"Washington","state":"D.C.","coordinates":{"latitude":38.8951118,"longitude":-77.0363658}},"reviewed":true},{"name":"Joe Henderson","sessions":[{"studio":"rvg","year":1963},{"studio":"rvg","year":1963},{"studio":"rvg","year":1963},{"studio":"rvg","year":1963},{"studio":"rvg","year":1963},{"studio":"rvg","year":1963},{"studio":"rvg","year":1963},{"studio":"rvg","year":1963},{"studio":"rvg","year":1963},{"studio":"rvg","year":1963},{"studio":"rvg","year":1963},{"studio":"rvg","year":1964},{"studio":"rvg","year":1964},{"studio":"rvg","year":1964},{"studio":"rvg","year":1964},{"studio":"rvg","year":1964},{"studio":"rvg","year":1964},{"studio":"rvg","year":1964},{"studio":"rvg","year":1964},{"studio":"rvg","year":1964},{"studio":"rvg","year":1964},{"studio":"rvg","year":1964},{"studio":"rvg","year":1965},{"studio":"rvg","year":1965},{"studio":"rvg","year":1965},{"studio":"rvg","year":1965},{"studio":"rvg","year":1965},{"studio":"rvg","year":1965},{"studio":"rvg","year":1965},{"studio":"rvg","year":1965},{"studio":"rvg","year":1966},{"studio":"rvg","year":1966},{"studio":"rvg","year":1966},{"studio":"rvg","year":1966},{"studio":"rvg","year":1966},{"studio":"rvg","year":1967}],"birthplace":{"city":"Lima","state":"OH","coordinates":{"latitude":40.742551,"longitude":-84.1052256}},"reviewed":true},{"name":"Harold Vick","sessions":[{"studio":"rvg","year":1963},{"studio":"rvg","year":1963},{"studio":"rvg","year":1964},{"studio":"rvg","year":1965}],"birthplace":{"city":"Rocky Mount","state":"NC","coordinates":{"latitude":35.9382103,"longitude":-77.7905339}},"reviewed":true},{"name":"Joe Zawinul","sessions":[{"studio":"rvg","year":1963}],"birthplace":{"city":"Vienna","state":"Austria","coordinates":{"latitude":48.2081743,"longitude":16.3738189}},"reviewed":true},{"name":"Frankie Dunlop","sessions":[{"studio":"rvg","year":1963}],"birthplace":{"city":"Buffalo","state":"NY","coordinates":{"latitude":42.88644679999999,"longitude":-78.8783689}},"reviewed":true},{"name":"Hosea Taylor","sessions":[{"studio":"rvg","year":1963},{"studio":"rvg","year":1966}],"reviewed":true},{"name":"Jay Berliner","sessions":[{"studio":"rvg","year":1963}],"birthplace":{"city":"Brooklyn","state":"NY","coordinates":{"latitude":40.65,"longitude":-73.95}},"reviewed":true},{"name":"Josian Ilori","sessions":[{"studio":"rvg","year":1963}],"birthplace":{"city":"Lagos","state":"Nigeria","coordinates":{"latitude":6.441158,"longitude":3.417977}},"reviewed":true},{"name":"Bobby Hutcherson","sessions":[{"studio":"rvg","year":1963},{"studio":"rvg","year":1963},{"studio":"rvg","year":1963},{"studio":"rvg","year":1963},{"studio":"rvg","year":1963},{"studio":"rvg","year":1963},{"studio":"rvg","year":1964},{"studio":"rvg","year":1964},{"studio":"rvg","year":1964},{"studio":"rvg","year":1964},{"studio":"rvg","year":1964},{"studio":"rvg","year":1964},{"studio":"rvg","year":1964},{"studio":"rvg","year":1964},{"studio":"rvg","year":1965},{"studio":"rvg","year":1965},{"studio":"rvg","year":1965},{"studio":"rvg","year":1965},{"studio":"rvg","year":1965},{"studio":"rvg","year":1965},{"studio":"rvg","year":1966},{"studio":"rvg","year":1966},{"studio":"rvg","year":1966},{"studio":"rvg","year":1967},{"studio":"rvg","year":1967}],"birthplace":{"city":"Los Angeles","state":"CA","coordinates":{"latitude":34.0522342,"longitude":-118.2436849}},"reviewed":true},{"name":"Eddie Khan","sessions":[{"studio":"rvg","year":1963},{"studio":"rvg","year":1963},{"studio":"rvg","year":1963},{"studio":"rvg","year":1963},{"studio":"rvg","year":1964},{"studio":"rvg","year":1964}],"reviewed":true},{"name":"Albert Heath","sessions":[{"studio":"rvg","year":1963},{"studio":"rvg","year":1964}],"birthplace":{"city":"Philadelphia","state":"PA","coordinates":{"latitude":39.952335,"longitude":-75.16378900000001}},"reviewed":true},{"name":"Irvin Stokes","sessions":[{"studio":"rvg","year":1963}],"birthplace":{"city":"Greensboro","state":"NC","coordinates":{"latitude":36.0726354,"longitude":-79.7919754}},"reviewed":true},{"name":"George Braith","sessions":[{"studio":"rvg","year":1963},{"studio":"rvg","year":1963},{"studio":"rvg","year":1963},{"studio":"rvg","year":1963},{"studio":"rvg","year":1964},{"studio":"rvg","year":1964}],"birthplace":{"city":"New York","state":"NY","coordinates":{"latitude":40.7143528,"longitude":-74.00597309999999}},"reviewed":true},{"name":"Leo Wright","sessions":[{"studio":"rvg","year":1963},{"studio":"rvg","year":1963},{"studio":"rvg","year":1963}],"birthplace":{"city":"Wichita Falls","state":"TX","coordinates":{"latitude":33.9137085,"longitude":-98.4933873}},"reviewed":true},{"name":"Bob Cranshaw","sessions":[{"studio":"rvg","year":1963},{"studio":"rvg","year":1963},{"studio":"rvg","year":1963},{"studio":"rvg","year":1963},{"studio":"rvg","year":1963},{"studio":"rvg","year":1963},{"studio":"rvg","year":1963},{"studio":"rvg","year":1964},{"studio":"rvg","year":1964},{"studio":"rvg","year":1964},{"studio":"rvg","year":1964},{"studio":"rvg","year":1964},{"studio":"rvg","year":1964},{"studio":"rvg","year":1964},{"studio":"rvg","year":1964},{"studio":"rvg","year":1964},{"studio":"rvg","year":1964},{"studio":"rvg","year":1964},{"studio":"rvg","year":1964},{"studio":"rvg","year":1965},{"studio":"rvg","year":1965},{"studio":"rvg","year":1965},{"studio":"rvg","year":1965},{"studio":"rvg","year":1965},{"studio":"rvg","year":1965},{"studio":"rvg","year":1965},{"studio":"rvg","year":1965},{"studio":"rvg","year":1965},{"studio":"rvg","year":1965},{"studio":"rvg","year":1965},{"studio":"rvg","year":1965},{"studio":"rvg","year":1965},{"studio":"rvg","year":1966},{"studio":"rvg","year":1966},{"studio":"rvg","year":1966},{"studio":"rvg","year":1966},{"studio":"rvg","year":1966},{"studio":"rvg","year":1966},{"studio":"rvg","year":1966},{"studio":"rvg","year":1966},{"studio":"rvg","year":1966},{"studio":"rvg","year":1967},{"studio":"rvg","year":1967},{"studio":"rvg","year":1967},{"studio":"rvg","year":1967},{"studio":"rvg","year":1967}],"birthplace":{"city":"Evanston","state":"IL","coordinates":{"latitude":42.0450722,"longitude":-87.68769689999999}},"reviewed":true},{"name":"Walter Perkins","sessions":[{"studio":"rvg","year":1963}],"birthplace":{"city":"Chicago","state":"IL","coordinates":{"latitude":41.8781136,"longitude":-87.6297982}},"reviewed":true},{"name":"Osvaldo “Chihuahua” Martinez","sessions":[{"studio":"rvg","year":1963}],"reviewed":true},{"name":"Billy Gardner","sessions":[{"studio":"rvg","year":1963},{"studio":"rvg","year":1963},{"studio":"rvg","year":1964},{"studio":"rvg","year":1964}],"reviewed":true},{"name":"Andrew Hill","sessions":[{"studio":"rvg","year":1963},{"studio":"rvg","year":1963},{"studio":"rvg","year":1963},{"studio":"rvg","year":1963},{"studio":"rvg","year":1964},{"studio":"rvg","year":1964},{"studio":"rvg","year":1964},{"studio":"rvg","year":1964},{"studio":"rvg","year":1965},{"studio":"rvg","year":1965},{"studio":"rvg","year":1965},{"studio":"rvg","year":1966},{"studio":"rvg","year":1967},{"studio":"rvg","year":1967},{"studio":"rvg","year":1967}],"birthplace":{"city":"Chicago","state":"IL","coordinates":{"latitude":41.8781136,"longitude":-87.6297982}},"reviewed":true},{"name":"John Ore","sessions":[{"studio":"rvg","year":1963}],"birthplace":{"city":"Philadelphia","state":"PA","coordinates":{"latitude":39.952335,"longitude":-75.16378900000001}},"reviewed":true},{"name":"Tom McIntosh","sessions":[{"studio":"rvg","year":1963},{"studio":"rvg","year":1966}],"birthplace":{"city":"Baltimore","state":"MD","coordinates":{"latitude":39.2903848,"longitude":-76.6121893}},"reviewed":true},{"name":"Earl May","sessions":[{"studio":"rvg","yaer":1963},{"studio":"rvg","year":1963}],"birthplace":{"city":"New York","state":"NY"},"reviewed":true},{"name":"Richard Davis","sessions":[{"studio":"rvg","year":1963},{"studio":"rvg","year":1963},{"studio":"rvg","year":1964},{"studio":"rvg","year":1964},{"studio":"rvg","year":1964},{"studio":"rvg","year":1964},{"studio":"rvg","year":1964},{"studio":"rvg","year":1964},{"studio":"rvg","year":1964},{"studio":"rvg","year":1965},{"studio":"rvg","year":1965},{"studio":"rvg","year":1965}],"birthplace":{"city":"Chicago","state":"IL","coordinates":{"latitude":41.8781136,"longitude":-87.6297982}},"reviewed":true},{"name":"Hugh Walker","sessions":[{"studio":"rvg","year":1963},{"studio":"rvg","year":1964},{"studio":"rvg","year":1966}],"reviewed":true},{"name":"Wellington Blakey","sessions":[{"studio":"rvg","year":1964}],"reviewed":true},{"name":"Eric Dolphy","sessions":[{"studio":"rvg","year":1964},{"studio":"rvg","year":1964}],"birthplace":{"city":"Los Angeles","state":"CA","coordinates":{"latitude":34.0522342,"longitude":-118.2436849}},"reviewed":true},{"name":"Ronnie Mathews","sessions":[{"studio":"rvg","year":1964},{"studio":"rvg","year":1965},{"studio":"rvg","year":1965}],"birthplace":{"city":"New York","state":"NY","coordinates":{"latitude":40.7143528,"longitude":-74.00597309999999}},"reviewed":true},{"name":"Joe Chambers","sessions":[{"studio":"rvg","year":1964},{"studio":"rvg","year":1964},{"studio":"rvg","year":1964},{"studio":"rvg","year":1965},{"studio":"rvg","year":1965},{"studio":"rvg","year":1965},{"studio":"rvg","year":1965},{"studio":"rvg","year":1965},{"studio":"rvg","year":1965},{"studio":"rvg","year":1965},{"studio":"rvg","year":1965},{"studio":"rvg","year":1966},{"studio":"rvg","year":1966},{"studio":"rvg","year":1966},{"studio":"rvg","year":1966},{"studio":"rvg","year":1967},{"studio":"rvg","year":1967},{"studio":"rvg","year":1967},{"studio":"rvg","year":1967},{"studio":"rvg","year":1967}],"birthplace":{"city":"Philadelphia","state":"PA","coordinates":{"latitude":39.952335,"longitude":-75.16378900000001}},"reviewed":true},{"name":"Mickey Roker","sessions":[{"studio":"rvg","year":1964},{"studio":"rvg","year":1964},{"studio":"rvg","year":1966},{"studio":"rvg","year":1966},{"studio":"rvg","year":1966},{"studio":"rvg","year":1966},{"studio":"rvg","year":1966},{"studio":"rvg","year":1967},{"studio":"rvg","year":1967},{"studio":"rvg","year":1967},{"studio":"rvg","year":1967},{"studio":"rvg","year":1967}],"birthplace":{"city":"Miami","state":"FL","coordinates":{"latitude":25.7889689,"longitude":-80.2264393}},"reviewed":true},{"name":"Richard Williams","sessions":[{"studio":"rvg","year":1964}],"birthplace":{"city":"Galveston","state":"TX","coordinates":{"latitude":29.3013479,"longitude":-94.7976958}},"reviewed":true},{"name":"Cecil McBee","sessions":[{"studio":"rvg","year":1964},{"studio":"rvg","year":1964},{"studio":"rvg","year":1964},{"studio":"rvg","year":1964},{"studio":"rvg","year":1965},{"studio":"rvg","year":1965},{"studio":"rvg","year":1967},{"studio":"rvg","year":1967}],"birthplace":{"city":"Tulsa","state":"OK","coordinates":{"latitude":36.1539816,"longitude":-95.99277500000001}},"reviewed":true},{"name":"Chick Corea","sessions":[{"studio":"rvg","year":1964},{"studio":"rvg","year":1965},{"studio":"rvg","year":1965},{"studio":"rvg","year":1966},{"studio":"rvg","year":1967},{"studio":"rvg","year":1967}],"birthplace":{"city":"Chelsea","state":"MA","coordinates":{"latitude":42.3917638,"longitude":-71.0328284}},"reviewed":true},{"name":"Al Foster","sessions":[{"studio":"rvg","year":1964},{"studio":"rvg","year":1965},{"studio":"rvg","year":1967}],"birthplace":{"city":"Richmond","state":"VA","coordinates":{"latitude":37.5407246,"longitude":-77.4360481}},"reviewed":true},{"name":"Charles Tolliver","sessions":[{"studio":"rvg","year":1964},{"studio":"rvg","year":1964},{"studio":"rvg","year":1964},{"studio":"rvg","year":1965},{"studio":"rvg","year":1965}],"birthplace":{"city":"Jacksonville","state":"FL","coordinates":{"latitude":30.3321838,"longitude":-81.65565099999999}},"reviewed":true},{"name":"Gary Peacock","sessions":[{"studio":"rvg","year":1964},{"studio":"rvg","year":1965}],"birthplace":{"city":"Burley","state":"ID","coordinates":{"latitude":42.5357428,"longitude":-113.7927948}},"reviewed":true},{"name":"Steve Ellington","sessions":[{"studio":"rvg","year":1964},{"studio":"rvg","year":1966},{"studio":"rvg","year":1967}],"birthplace":{"city":"Atlanta","state":"GA","coordinates":{"latitude":33.7489954,"longitude":-84.3879824}},"reviewed":true},{"name":"Larry Young","sessions":[{"studio":"rvg","year":1964},{"studio":"rvg","year":1964},{"studio":"rvg","year":1964},{"studio":"rvg","year":1965},{"studio":"rvg","year":1965},{"studio":"rvg","year":1966},{"studio":"rvg","year":1967}],"birthplace":{"city":"Newark","state":"NJ","coordinates":{"latitude":40.735657,"longitude":-74.1723667}},"reviewed":true},{"name":"Calvin Newborn","sessions":[{"studio":"rvg","year":1964}],"birthplace":{"city":"Whiteville","state":"TN","coordinates":{"latitude":35.3264714,"longitude":-89.1495102}},"reviewed":true},{"name":"Marvin Robinson","sessions":[{"studio":"rvg","year":1964}],"reviewed":true},{"name":"Phyllis Smith","sessions":[{"studio":"rvg","year":1964}],"birthplace":{"city":"Chicago","state":"IL"},"reviewed":true},{"name":"Willie Tate","sessions":[{"studio":"rvg","year":1964}],"reviewed":true},{"name":"Carmell Jones","sessions":[{"studio":"rvg","year":1964}],"birthplace":{"city":"Kansas City","state":"KS","coordinates":{"latitude":39.114053,"longitude":-94.6274636}},"reviewed":true},{"name":"Teddy Smith","sessions":[{"studio":"rvg","year":1964}],"birthplace":{"city":"Washington","state":"D.C.","coordinates":{"latitude":38.8951118,"longitude":-77.0363658}},"reviewed":true},{"name":"Hubert Laws","sessions":[{"studio":"rvg","year":1964}],"birthplace":{"city":"Houston","state":"TX","coordinates":{"latitude":29.7601927,"longitude":-95.36938959999999}},"reviewed":true},{"name":"Ladji Camara","sessions":[{"studio":"rvg","year":1964}],"birthplace":{"city":"siguiri","state":"guinea","coordinates":{"latitude":11.421333,"longitude":-9.168688999999999}},"reviewed":true},{"name":"Sunny Morgan","sessions":[{"studio":"rvg","year":1964}],"reviewed":true},{"name":"Walter Booker","sessions":[{"studio":"rvg","year":1964},{"studio":"rvg","year":1966},{"studio":"rvg","year":1966},{"studio":"rvg","year":1967},{"studio":"rvg","year":1967},{"studio":"rvg","year":1967},{"studio":"rvg","year":1967}],"birthplace":{"city":"Prairie View","state":"TX","coordinates":{"latitude":30.0932737,"longitude":-95.9877339}},"reviewed":true},{"name":"Jaki Byard","sessions":[{"studio":"rvg","year":1964}],"birthplace":{"city":"Worcester","state":"MA","coordinates":{"latitude":42.2625932,"longitude":-71.8022934}},"reviewed":true},{"name":"Jimmy Owens","sessions":[{"studio":"rvg","year":1964},{"studio":"rvg","year":1964}],"birthplace":{"city":"New York","state":"NY","coordinates":{"latitude":40.7143528,"longitude":-74.00597309999999}},"reviewed":true},{"name":"Ernie Royal","sessions":[{"studio":"rvg","year":1964},{"studio":"rvg","year":1964},{"studio":"rvg","year":1965},{"studio":"rvg","year":1965},{"studio":"rvg","year":1966}],"birthplace":{"city":"Los Angeles","state":"CA","coordinates":{"latitude":34.0522342,"longitude":-118.2436849}},"reviewed":true},{"name":"Clark Terry","sessions":[{"studio":"rvg","year":1964},{"studio":"rvg","year":1965},{"studio":"rvg","year":1965}],"birthplace":{"city":"St. Louis","state":"MO","coordinates":{"latitude":38.6270025,"longitude":-90.19940419999999}},"reviewed":true},{"name":"Snooky Young","sessions":[{"studio":"rvg","year":1964},{"studio":"rvg","year":1964},{"studio":"rvg","year":1965},{"studio":"rvg","year":1965}],"birthplace":{"city":"Dayton","state":"OH","coordinates":{"latitude":39.7589478,"longitude":-84.1916069}},"reviewed":true},{"name":"Jimmy Cleveland","sessions":[{"studio":"rvg","year":1964},{"studio":"rvg","year":1964},{"studio":"rvg","year":1965},{"studio":"rvg","year":1965}],"birthplace":{"city":"Wartrace","state":"TN","coordinates":{"latitude":35.5272954,"longitude":-86.33360429999999}},"reviewed":true},{"name":"Henry Cocker (Coker)","sessions":[{"studio":"rvg","year":1964},{"studio":"rvg","year":1964},{"studio":"rvg","year":1965}],"birthplace":{"city":"Dallas","state":"TX","coordinates":{"latitude":32.7801399,"longitude":-96.80045109999999}},"reviewed":true},{"name":"Jim Buffington","sessions":[{"studio":"rvg","year":1964},{"studio":"rvg","year":1964},{"studio":"rvg","year":1966}],"birthplace":{"city":"Jersey Shore","state":"PA","coordinates":{"latitude":41.2020171,"longitude":-77.2644152}},"reviewed":true},{"name":"Bob Northern","sessions":[{"studio":"rvg","year":1964},{"studio":"rvg","year":1964},{"studio":"rvg","year":1967}],"birthplace":{"city":"North Carolina","state":null,"coordinates":{"latitude":35.7595731,"longitude":-79.01929969999999}},"reviewed":true},{"name":"Grady Tate","sessions":[{"studio":"rvg","year":1964},{"studio":"rvg","year":1964},{"studio":"rvg","year":1965},{"studio":"rvg","year":1965},{"studio":"rvg","year":1967}],"birthplace":{"city":"Durahm","state":"NC","coordinates":{"latitude":35.9940329,"longitude":-78.898619}},"reviewed":true},{"name":"Joe Ferrante","sessions":[{"studio":"rvg","year":1964}],"reviewed":true},{"name":"Larry Willis","sessions":[{"studio":"rvg","year":1965},{"studio":"rvg","year":1965},{"studio":"rvg","year":1965},{"studio":"rvg","year":1966}],"birthplace":{"city":"New York","state":"NY","coordinates":{"latitude":40.7143528,"longitude":-74.00597309999999}},"reviewed":true},{"name":"Kiane Zawadi","sessions":[{"studio":"rvg","year":1965},{"studio":"rvg","year":1965},{"studio":"rvg","year":1966}],"reviewed":true},{"name":"Harold Mabern","sessions":[{"studio":"rvg","year":1965},{"studio":"rvg","year":1965},{"studio":"rvg","year":1965},{"studio":"rvg","year":1965},{"studio":"rvg","year":1965},{"studio":"rvg","year":1966}],"birthplace":{"city":"Memphis","state":"TN","coordinates":{"latitude":35.1495343,"longitude":-90.0489801}},"reviewed":true},{"name":"Big Black","sessions":[{"studio":"rvg","year":1965}],"birthplace":{"city":"Georgia","state":null,"coordinates":{"latitude":32.1574351,"longitude":-82.90712300000001}},"reviewed":true},{"name":"Stu Martin","sessions":[{"studio":"rvg","year":1965}],"birthplace":{"city":"Liberty","state":"NY","coordinates":{"latitude":41.8012001,"longitude":-74.74655}},"reviewed":true},{"name":"Victor Sproles","sessions":[{"studio":"rvg","year":1965},{"studio":"rvg","year":1965},{"studio":"rvg","year":1967}],"birthplace":{"city":"Chicago","state":"IL","coordinates":{"latitude":41.8781136,"longitude":-87.6297982}},"reviewed":true},{"name":"Tony Studd","sessions":[{"studio":"rvg","year":1965},{"studio":"rvg","year":1965}],"reviewed":true},{"name":"Jerry Dodgion","sessions":[{"studio":"rvg","year":1965},{"studio":"rvg","year":1965},{"studio":"rvg","year":1966},{"studio":"rvg","year":1967},{"studio":"rvg","year":1967},{"studio":"rvg","year":1967},{"studio":"rvg","year":1967},{"studio":"rvg","year":1967},{"studio":"rvg","year":1967}],"birthplace":{"city":"Richmond","state":"CA","coordinates":{"latitude":37.9357576,"longitude":-122.3477486}},"reviewed":true},{"name":"Phil Woods","sessions":[{"studio":"rvg","year":1965},{"studio":"rvg","year":1965},{"studio":"rvg","year":1966}],"birthplace":{"city":"Springfield","state":"MA","coordinates":{"latitude":42.1014831,"longitude":-72.589811}},"reviewed":true},{"name":"Robert Ashton","sessions":[{"studio":"rvg","year":1965},{"studio":"rvg","year":1965}],"reviewed":true},{"name":"Budd Johnson","sessions":[{"studio":"rvg","year":1965},{"studio":"rvg","year":1965}],"birthplace":{"city":"Dallas","state":"TX","coordinates":{"latitude":32.7801399,"longitude":-96.80045109999999}},"reviewed":true},{"name":"Danny Bank","sessions":[{"studio":"rvg","year":1965},{"studio":"rvg","year":1965},{"studio":"rvg","year":1966}],"birthplace":{"city":"New York","state":"NY","coordinates":{"latitude":40.7143528,"longitude":-74.00597309999999}},"reviewed":true},{"name":"Roger Kellaway","sessions":[{"studio":"rvg","year":1965}],"birthplace":{"city":"Waban","state":"MA","coordinates":{"latitude":42.3270215,"longitude":-71.2309935}},"reviewed":true},{"name":"Oliver Nelson","sessions":[{"studio":"rvg","year":1965},{"studio":"rvg","year":1965},{"studio":"rvg","year":1966}],"birthplace":{"city":"St. Louis","state":"MO","coordinates":{"latitude":38.6270025,"longitude":-90.19940419999999}},"reviewed":true},{"name":"Steve Kuhn","sessions":[{"studio":"rvg","year":1965}],"birthplace":{"city":"Brooklyn","state":"NY","coordinates":{"latitude":40.65,"longitude":-73.95}},"reviewed":true},{"name":"Jack DeJohnette","sessions":[{"studio":"rvg","year":1965},{"studio":"rvg","year":1965},{"studio":"rvg","year":1966},{"studio":"rvg","year":1967}],"birthplace":{"city":"Chicago","state":"IL","coordinates":{"latitude":41.8781136,"longitude":-87.6297982}},"reviewed":true},{"name":"Kahlil Rahman","sessions":[{"studio":"rvg","year":1965}],"reviewed":true},{"name":"Woody Shaw","sessions":[{"studio":"rvg","year":1965},{"studio":"rvg","year":1965},{"studio":"rvg","year":1965},{"studio":"rvg","year":1966},{"studio":"rvg","year":1966},{"studio":"rvg","year":1967},{"studio":"rvg","year":1967},{"studio":"rvg","year":1967},{"studio":"rvg","year":1967}],"birthplace":{"city":"Laurinburg","state":"NC","coordinates":{"latitude":34.7740494,"longitude":-79.46282479999999}},"reviewed":true},{"name":"Nadi Qamar","sessions":[{"studio":"rvg","year":1965},{"studio":"rvg","year":1967}],"reviewed":true},{"name":"Renaud Simmons","sessions":[{"studio":"rvg","year":1965}],"reviewed":true},{"name":"Alan Shorter","sessions":[{"studio":"rvg","year":1965}],"birthplace":{"city":"Newark","state":"NJ","coordinates":{"latitude":40.735657,"longitude":-74.1723667}},"reviewed":true},{"name":"Don Cherry","sessions":[{"studio":"rvg","year":1965},{"studio":"rvg","year":1966},{"studio":"rvg","year":1966}],"birthplace":{"city":"Oklahoma City","state":"OK","coordinates":{"latitude":35.4675602,"longitude":-97.5164276}},"reviewed":true},{"name":"Gato Barbieri","sessions":[{"studio":"rvg","year":1965},{"studio":"rvg","year":1966}],"birthplace":{"city":"Rosario","state":"Argentina","coordinates":{"latitude":-32.9507408,"longitude":-60.66650010000001}},"reviewed":true},{"name":"Henry Grimes","sessions":[{"studio":"rvg","year":1965},{"studio":"rvg","year":1966},{"studio":"rvg","year":1966},{"studio":"rvg","year":1966},{"studio":"rvg","year":1966}],"birthplace":{"city":"Philadelphia","state":"PA","coordinates":{"latitude":39.952335,"longitude":-75.16378900000001}},"reviewed":true},{"name":"Ed Blackwell","sessions":[{"studio":"rvg","year":1965},{"studio":"rvg","year":1966},{"studio":"rvg","year":1966}],"birthplace":{"city":"New Orleans","state":"LA","coordinates":{"latitude":29.95106579999999,"longitude":-90.0715323}},"reviewed":true},{"name":"J.C. Moses","sessions":[{"studio":"rvg","year":1966}],"birthplace":{"city":"Pittsburgh","state":"PA","coordinates":{"latitude":40.44062479999999,"longitude":-79.9958864}},"reviewed":true},{"name":"Howard Johnson","sessions":[{"studio":"rvg","year":1966},{"studio":"rvg","year":1967},{"studio":"rvg","year":1967}],"birthplace":{"city":"Montgomery","state":"AL","coordinates":{"latitude":32.3668052,"longitude":-86.2999689}},"reviewed":true},{"name":"Don Moore","sessions":[{"studio":"rvg","year":1966}],"birthplace":{"city":"Philadelphia","state":"PA","coordinates":{"latitude":39.952335,"longitude":-75.16378900000001}},"reviewed":true},{"name":"Richie “Pablo” Landrum","sessions":[{"studio":"rvg","year":1966}],"reviewed":true},{"name":"Eddie Gale","sessions":[{"studio":"rvg","year":1966},{"studio":"rvg","year":1966}],"birthplace":{"city":"Brooklyn","state":"NY","coordinates":{"latitude":40.65,"longitude":-73.95}},"reviewed":true},{"name":"Jimmy Lyons","sessions":[{"studio":"rvg","year":1966},{"studio":"rvg","year":1966}],"birthplace":{"city":"Jersey City","state":"NJ","coordinates":{"latitude":40.72815749999999,"longitude":-74.0776417}},"reviewed":true},{"name":"Ken McIntyre","sessions":[{"studio":"rvg","year":1966}],"birthplace":{"city":"Boston","state":"MA","coordinates":{"latitude":42.3584308,"longitude":-71.0597732}},"reviewed":true},{"name":"Cecil Taylor","sessions":[{"studio":"rvg","year":1966},{"studio":"rvg","year":1966}],"birthplace":{"city":"New York","state":"NY","coordinates":{"latitude":40.7143528,"longitude":-74.00597309999999}},"reviewed":true},{"name":"Alan Silva","sessions":[{"studio":"rvg","year":1966},{"studio":"rvg","year":1966}],"birthplace":{"city":"Bermuda","state":null,"coordinates":{"latitude":32.3078,"longitude":-64.7505}},"reviewed":true},{"name":"Andrew Cyrille","sessions":[{"studio":"rvg","year":1966},{"studio":"rvg","year":1966}],"birthplace":{"city":"Brooklyn","state":"NY","coordinates":{"latitude":40.65,"longitude":-73.95}},"reviewed":true},{"name":"Freddie Waits","sessions":[{"studio":"rvg","year":1966}],"birthplace":{"city":"Jackson","state":"MS","coordinates":{"latitude":32.2987573,"longitude":-90.1848103}},"reviewed":true},{"name":"Melvin Lastie","sessions":[{"studio":"rvg","year":1966},{"studio":"rvg","year":1967}],"birthplace":{"city":"New Orleans","state":"LA","coordinates":{"latitude":29.95106579999999,"longitude":-90.0715323}},"reviewed":true},{"name":"Billy Butler","sessions":[{"studio":"rvg","year":1966}],"birthplace":{"city":"Philadelphia","state":"PA","coordinates":{"latitude":39.952335,"longitude":-75.16378900000001}},"reviewed":true},{"name":"Eric Gale","sessions":[{"studio":"rvg","year":1966}],"birthplace":{"city":"Brooklyn","state":"NY","coordinates":{"latitude":40.65,"longitude":-73.95}},"reviewed":true},{"name":"Bernard Purdie","sessions":[{"studio":"rvg","year":1966}],"birthplace":{"city":"Elkton","state":"MD","coordinates":{"latitude":39.60677889999999,"longitude":-75.83327179999999}},"reviewed":true},{"name":"Herbert Morgan","sessions":[{"studio":"rvg","year":1966},{"studio":"rvg","year":1967}],"birthplace":{"city":"Newark","state":"NJ","coordinates":{"latitude":40.735657,"longitude":-74.1723667}},"reviewed":true},{"name":"Wilson Moorman III","sessions":[{"studio":"rvg","year":1966}],"reviewed":true},{"name":"Jerry Thomas","sessions":[{"studio":"rvg","year":1966}],"reviewed":true},{"name":"Ornette Coleman","sessions":[{"studio":"rvg","year":1966},{"studio":"rvg","year":1967}],"birthplace":{"city":"Fort Worth","state":"TX","coordinates":{"latitude":32.725409,"longitude":-97.3208496}},"reviewed":true},{"name":"Charlie Haden","sessions":[{"studio":"rvg","year":1966}],"birthplace":{"city":"Shenandoah","state":"IA","coordinates":{"latitude":40.7667389,"longitude":-95.3761506}},"reviewed":true},{"name":"Denardo Coleman","sessions":[{"studio":"rvg","year":1966}],"birthplace":{"city":"Los Angeles","state":"CA","coordinates":{"latitude":34.0522342,"longitude":-118.2436849}},"reviewed":true},{"name":"Pharoah Sanders","sessions":[{"studio":"rvg","year":1966},{"studio":"rvg","year":1966}],"birthplace":{"city":"Little Rock","state":"AR","coordinates":{"latitude":34.7464809,"longitude":-92.28959479999999}},"reviewed":true},{"name":"Karl-Hans Berger","sessions":[{"studio":"rvg","year":1966}],"birthplace":{"city":"Heidelberg","state":"Germany","coordinates":{"latitude":49.3987524,"longitude":8.6724335}},"reviewed":true},{"name":"Jean-Francois Jenny-Clark","sessions":[{"studio":"rvg","year":1966}],"birthplace":{"city":"Toulouse","state":"France","coordinates":{"latitude":43.604652,"longitude":1.444209}},"reviewed":true},{"name":"Joseph Rivera","sessions":[{"studio":"rvg","year":1966}],"reviewed":true},{"name":"Bill Dixon","sessions":[{"studio":"rvg","year":1966}],"birthplace":{"city":"Nantucket","state":"MA","coordinates":{"latitude":41.2834704,"longitude":-70.099451}},"reviewed":true},{"name":"Hal Galper","sessions":[{"studio":"rvg","year":1966}],"birthplace":{"city":"Salem","state":"MA","coordinates":{"latitude":42.51954,"longitude":-70.8967155}},"reviewed":true},{"name":"Kalil Madi","sessions":[{"studio":"rvg","year":1966}],"birthplace":{"city":"Bronx","state":"NY","coordinates":{"latitude":40.85,"longitude":-73.86666699999999}},"reviewed":true},{"name":"Tyrone Washington","sessions":[{"studio":"rvg","year":1966},{"studio":"rvg","year":1966},{"studio":"rvg","year":1967},{"studio":"rvg","year":1967}],"reviewed":true},{"name":"Garnett Brown","sessions":[{"studio":"rvg","year":1967},{"studio":"rvg","year":1967},{"studio":"rvg","year":1967},{"studio":"rvg","year":1967},{"studio":"rvg","year":1967},{"studio":"rvg","year":1967}],"birthplace":{"city":"Memphis","state":"TN","coordinates":{"latitude":35.1495343,"longitude":-90.0489801}},"reviewed":true},{"name":"Lamont Johnson","sessions":[{"studio":"rvg","year":1967},{"studio":"rvg","year":1967},{"studio":"rvg","year":1967},{"studio":"rvg","year":1967}],"birthplace":{"city":"New York","state":"NY","coordinates":{"latitude":40.7143528,"longitude":-74.00597309999999}},"reviewed":true},{"name":"Scott Holt","sessions":[{"studio":"rvg","year":1967},{"studio":"rvg","year":1967},{"studio":"rvg","year":1967},{"studio":"rvg","year":1967}],"reviewed":true},{"name":"Robin Kenyatta","sessions":[{"studio":"rvg","year":1967},{"studio":"rvg","year":1967}],"birthplace":{"city":"moncks corner","state":"sc","coordinates":{"latitude":33.1960027,"longitude":-80.01313739999999}},"reviewed":true},{"name":"Joe Farrell","sessions":[{"studio":"rvg","year":1967},{"studio":"rvg","year":1967}],"birthplace":{"city":"chicago heights","state":"il","coordinates":{"latitude":41.506146,"longitude":-87.6355995}},"reviewed":true},{"name":"Kenny Barron","sessions":[{"studio":"rvg","year":1967},{"studio":"rvg","year":1967}],"birthplace":{"city":"Philadelphia","state":"pa","coordinates":{"latitude":39.952335,"longitude":-75.16378900000001}},"reviewed":true},{"name":"Bucky Pizzarelli","sessions":[{"studio":"rvg","year":1967}],"birthplace":{"city":"Paterson","state":"NJ","coordinates":{"latitude":40.9167654,"longitude":-74.17181099999999}},"reviewed":true},{"name":"Sonny Greenwich","sessions":[{"studio":"rvg","year":1967}],"birthplace":{"city":"hamilton","state":"ontario","coordinates":{"latitude":43.25002080000001,"longitude":-79.8660914}},"reviewed":true},{"name":"Lonnie Smith","sessions":[{"studio":"rvg","year":1967},{"studio":"rvg","year":1967}],"birthplace":{"city":"lackawanna","state":"ny","coordinates":{"latitude":42.8256141,"longitude":-78.8233664}},"reviewed":true},{"name":"George Benson","sessions":[{"studio":"rvg","year":1967}],"birthplace":{"city":"Pittsburgh","state":"Pa","coordinates":{"latitude":40.44062479999999,"longitude":-79.9958864}},"reviewed":true},{"name":"Leo Morris","sessions":[{"studio":"rvg","year":1967},{"studio":"rvg","year":1967}],"birthplace":{"city":"New Orleans","state":"LA","coordinates":{"latitude":29.95106579999999,"longitude":-90.0715323}},"reviewed":true},{"name":"David Newman","sessions":[{"studio":"rvg","year":1967},{"studio":"rvg","year":1967}],"birthplace":{"city":"corsicana","state":"tx","coordinates":{"latitude":32.0954304,"longitude":-96.46887269999999}},"reviewed":true},{"name":"Al Gibbons","sessions":[{"studio":"rvg","year":1967},{"studio":"rvg","year":1967},{"studio":"rvg","year":1967}],"reviewed":true},{"name":"Joe Shepley","sessions":[{"studio":"rvg","year":1967},{"studio":"rvg","year":1967}],"reviewed":true},{"name":"Marvin Stamm","sessions":[{"studio":"rvg","year":1967},{"studio":"rvg","year":1967}],"birthplace":{"city":"memphis","state":"tn","coordinates":{"latitude":35.1495343,"longitude":-90.0489801}},"reviewed":true},{"name":"Mario Rivera","sessions":[{"studio":"rvg","year":1967}],"birthplace":{"city":"santo domingo","state":"dominican republic","coordinates":{"latitude":18.5,"longitude":-69.9833333}},"reviewed":true},{"name":"Ray Lucas","sessions":[{"studio":"rvg","year":1967},{"studio":"rvg","year":1967}],"reviewed":true},{"name":"Albert Stinson","sessions":[{"studio":"rvg","year":1967}],"birthplace":{"city":"cleveland","state":"oh","coordinates":{"latitude":41.4994954,"longitude":-81.6954088}},"reviewed":true},{"name":"Richard Landrum","sessions":[{"studio":"rvg","year":1967}],"reviewed":true},{"name":"Rashied Ali","sessions":[{"studio":"rvg","year":1967}],"birthplace":{"city":"Philadelphia","state":"pa","coordinates":{"latitude":39.952335,"longitude":-75.16378900000001}},"reviewed":true},{"name":"Barbara Simmons","sessions":[{"studio":"rvg","year":1967}],"birthplace":{"city":"Minneapolis","state":"MN","coordinates":{"latitude":44.983334,"longitude":-93.26666999999999}},"reviewed":true},{"name":"Hank White","sessions":[{"studio":"rvg","year":1967}],"reviewed":true},{"name":"Eddie Gladden","sessions":[{"studio":"rvg","year":1967}],"birthplace":{"city":"Newark","state":"NJ","coordinates":{"latitude":40.735657,"longitude":-74.1723667}},"reviewed":true},{"name":"Stacey Edwards","sessions":[{"studio":"rvg","year":1967}],"reviewed":true},{"name":"Althea Young","sessions":[{"studio":"rvg","year":1967}],"reviewed":true},{"name":"Jackie Wilson","sessions":[{"studio":"rvg","year":1967}],"birthplace":{"city":"Detroit","state":"MI"},"reviewed":true},{"name":"Miroslav Vitous","sessions":[{"studio":"rvg","year":1967},{"studio":"rvg","year":1967}],"birthplace":{"city":"Prague","state":"czech republic","coordinates":{"latitude":50.0755381,"longitude":14.4378005}},"reviewed":true},{"name":"John Hicks","sessions":[{"studio":"rvg","year":1967}],"birthplace":{"city":"Atlanta","state":"GA","coordinates":{"latitude":33.7489954,"longitude":-84.3879824}},"reviewed":true},{"name":"Jimmy Ponder","sessions":[{"studio":"rvg","year":1967}],"birthplace":{"city":"Pittsburgh","state":"PA","coordinates":{"latitude":40.44062479999999,"longitude":-79.9958864}},"reviewed":true},{"name":"Frank Mitchell","sessions":[{"studio":"rvg","year":1967}],"reviewed":true},{"name":"Burt Collins","sessions":[{"studio":"rvg","year":1967},{"studio":"rvg","year":1967}],"reviewed":true},{"name":"Melba Liston","sessions":[{"studio":"rvg","year":1967}],"birthplace":{"city":"Kansas City","state":"MO","coordinates":{"latitude":39.0997265,"longitude":-94.5785667}},"reviewed":true},{"name":"Don Pickett","sessions":[{"studio":"rvg","year":1967}],"reviewed":true},{"name":"Bennie Maupin","sessions":[{"studio":"rvg","year":1967}],"birthplace":{"city":"Detroit","state":"MI","coordinates":{"latitude":42.331427,"longitude":-83.0457538}},"reviewed":true},{"name":"Randy Brecker","sessions":[{"studio":"rvg","year":1967}],"birthplace":{"city":"Cheltenham","state":"PA","coordinates":{"latitude":40.0609445,"longitude":-75.09406249999999}},"reviewed":true},{"name":"Kenny Rupp","sessions":[{"studio":"rvg","year":1967}],"reviewed":true},{"name":"Lew Tabackin","sessions":[{"studio":"rvg","year":1967}],"birthplace":{"city":"Philadelphia","state":"PA","coordinates":{"latitude":39.952335,"longitude":-75.16378900000001}},"reviewed":true}]